{
  "terrestrial": {
    "61404.0": {
      "id": "61404.0",
      "name": "Northern Mesoamerican Pacific mangroves",
      "biome": "14.0",
      "realm": "NT",
      "centerLat": 15.69,
      "centerLng": -96.3,
      "radiusKm": 50
    },
    "60228.0": {
      "id": "60228.0",
      "name": "Sinaloan dry forests",
      "biome": "2.0",
      "realm": "NT",
      "centerLat": 22.83,
      "centerLng": -104.89,
      "radiusKm": 50
    },
    "60904.0": {
      "id": "60904.0",
      "name": "Everglades",
      "biome": "9.0",
      "realm": "NT",
      "centerLat": 25.25,
      "centerLng": -81.01,
      "radiusKm": 50
    },
    "60301.0": {
      "id": "60301.0",
      "name": "Bahamian pine mosaic",
      "biome": "3.0",
      "realm": "NT",
      "centerLat": 21.02,
      "centerLng": -73.49,
      "radiusKm": 50
    },
    "61402.0": {
      "id": "61402.0",
      "name": "Bahamian-Antillean mangroves",
      "biome": "14.0",
      "realm": "NT",
      "centerLat": 12.71,
      "centerLng": -61.33,
      "radiusKm": 50
    },
    "60164.0": {
      "id": "60164.0",
      "name": "South Florida rocklands",
      "biome": "1.0",
      "realm": "NT",
      "centerLat": 24.56,
      "centerLng": -81.77,
      "radiusKm": 50
    },
    "61314.0": {
      "id": "61314.0",
      "name": "San Lucan xeric scrub",
      "biome": "13.0",
      "realm": "NT",
      "centerLat": 23.61,
      "centerLng": -109.87,
      "radiusKm": 97
    },
    "60176.0": {
      "id": "60176.0",
      "name": "Veracruz moist forests",
      "biome": "1.0",
      "realm": "NT",
      "centerLat": 21.8,
      "centerLng": -97.65,
      "radiusKm": 50
    },
    "60227.0": {
      "id": "60227.0",
      "name": "Sierra de la Laguna dry forests",
      "biome": "2.0",
      "realm": "NT",
      "centerLat": 23.13,
      "centerLng": -109.62,
      "radiusKm": 50
    },
    "60302.0": {
      "id": "60302.0",
      "name": "Belizian pine forests",
      "biome": "3.0",
      "realm": "NT",
      "centerLat": 16.43,
      "centerLng": -88.61,
      "radiusKm": 50
    },
    "60154.0": {
      "id": "60154.0",
      "name": "Pet\u00e9n-Veracruz moist forests",
      "biome": "1.0",
      "realm": "NT",
      "centerLat": 17.46,
      "centerLng": -88.33,
      "radiusKm": 50
    },
    "61403.0": {
      "id": "61403.0",
      "name": "Mesoamerican Gulf-Caribbean mangroves",
      "biome": "14.0",
      "realm": "NT",
      "centerLat": 9.08,
      "centerLng": -77.84,
      "radiusKm": 50
    },
    "60134.0": {
      "id": "60134.0",
      "name": "Leeward Islands moist forests",
      "biome": "1.0",
      "realm": "NT",
      "centerLat": 16.16,
      "centerLng": -61.67,
      "radiusKm": 50
    },
    "60113.0": {
      "id": "60113.0",
      "name": "Chiapas montane forests",
      "biome": "1.0",
      "realm": "NT",
      "centerLat": 16.29,
      "centerLng": -91.7,
      "radiusKm": 50
    },
    "60308.0": {
      "id": "60308.0",
      "name": "Sierra Madre de Oaxaca pine-oak forests",
      "biome": "3.0",
      "realm": "NT",
      "centerLat": 16.58,
      "centerLng": -95.81,
      "radiusKm": 50
    },
    "60309.0": {
      "id": "60309.0",
      "name": "Sierra Madre del Sur pine-oak forests",
      "biome": "3.0",
      "realm": "NT",
      "centerLat": 16.24,
      "centerLng": -95.65,
      "radiusKm": 50
    },
    "60179.0": {
      "id": "60179.0",
      "name": "Windward Islands moist forests",
      "biome": "1.0",
      "realm": "NT",
      "centerLat": 12.13,
      "centerLng": -61.68,
      "radiusKm": 50
    },
    "60112.0": {
      "id": "60112.0",
      "name": "Central American montane forests",
      "biome": "1.0",
      "realm": "NT",
      "centerLat": 12.89,
      "centerLng": -85.88,
      "radiusKm": 50
    },
    "61305.0": {
      "id": "61305.0",
      "name": "Caribbean shrublands",
      "biome": "13.0",
      "realm": "NT",
      "centerLat": 12.03,
      "centerLng": -61.71,
      "radiusKm": 50
    },
    "60220.0": {
      "id": "60220.0",
      "name": "Lesser Antillean dry forests",
      "biome": "2.0",
      "realm": "NT",
      "centerLat": 10.61,
      "centerLng": -61.53,
      "radiusKm": 50
    },
    "61407.0": {
      "id": "61407.0",
      "name": "Southern Mesoamerican Pacific mangroves",
      "biome": "14.0",
      "realm": "NT",
      "centerLat": 7.37,
      "centerLng": -81.67,
      "radiusKm": 50
    },
    "60303.0": {
      "id": "60303.0",
      "name": "Central American pine-oak forests",
      "biome": "3.0",
      "realm": "NT",
      "centerLat": 11.88,
      "centerLng": -84.97,
      "radiusKm": 50
    },
    "61401.0": {
      "id": "61401.0",
      "name": "Amazon-Orinoco-Southern Caribbean mangroves",
      "biome": "14.0",
      "realm": "NT",
      "centerLat": -2.95,
      "centerLng": -44.62,
      "radiusKm": 50
    },
    "61301.0": {
      "id": "61301.0",
      "name": "Araya and Paria xeric scrub",
      "biome": "13.0",
      "realm": "NT",
      "centerLat": 10.54,
      "centerLng": -63.23,
      "radiusKm": 125
    },
    "61308.0": {
      "id": "61308.0",
      "name": "Guajira-Barranquilla xeric scrub",
      "biome": "13.0",
      "realm": "NT",
      "centerLat": 10.2,
      "centerLng": -75.24,
      "radiusKm": 114
    },
    "60171.0": {
      "id": "60171.0",
      "name": "Trinidad and Tobago moist forests",
      "biome": "1.0",
      "realm": "NT",
      "centerLat": 10.44,
      "centerLng": -61.4,
      "radiusKm": 69
    },
    "60229.0": {
      "id": "60229.0",
      "name": "Sin\u00fa Valley dry forests",
      "biome": "2.0",
      "realm": "NT",
      "centerLat": 9.87,
      "centerLng": -74.17,
      "radiusKm": 183
    },
    "60119.0": {
      "id": "60119.0",
      "name": "Costa Rican seasonal moist forests",
      "biome": "1.0",
      "realm": "NT",
      "centerLat": 9.89,
      "centerLng": -85.36,
      "radiusKm": 60
    },
    "60159.0": {
      "id": "60159.0",
      "name": "Santa Marta montane forests",
      "biome": "1.0",
      "realm": "NT",
      "centerLat": 10.74,
      "centerLng": -73.63,
      "radiusKm": 79
    },
    "60709.0": {
      "id": "60709.0",
      "name": "Llanos",
      "biome": "7.0",
      "realm": "NT",
      "centerLat": 6.37,
      "centerLng": -63.42,
      "radiusKm": 50
    },
    "61006.0": {
      "id": "61006.0",
      "name": "Northern Andean p\u00e1ramo",
      "biome": "10.0",
      "realm": "NT",
      "centerLat": -3.62,
      "centerLng": -79.47,
      "radiusKm": 50
    },
    "60124.0": {
      "id": "60124.0",
      "name": "Guianan Highlands moist forests",
      "biome": "1.0",
      "realm": "NT",
      "centerLat": 1.34,
      "centerLng": -62.23,
      "radiusKm": 50
    },
    "60169.0": {
      "id": "60169.0",
      "name": "Pantepui",
      "biome": "1.0",
      "realm": "NT",
      "centerLat": 1.36,
      "centerLng": -64.58,
      "radiusKm": 50
    },
    "60707.0": {
      "id": "60707.0",
      "name": "Guianan savanna",
      "biome": "7.0",
      "realm": "NT",
      "centerLat": 5.69,
      "centerLng": -60.79,
      "radiusKm": 50
    },
    "61405.0": {
      "id": "61405.0",
      "name": "South American Pacific mangroves",
      "biome": "14.0",
      "realm": "NT",
      "centerLat": -3.38,
      "centerLng": -80.27,
      "radiusKm": 50
    },
    "60158.0": {
      "id": "60158.0",
      "name": "Rio Negro campinarana",
      "biome": "1.0",
      "realm": "NT",
      "centerLat": -1.4,
      "centerLng": -65.66,
      "radiusKm": 50
    },
    "60201.0": {
      "id": "60201.0",
      "name": "Apure-Villavicencio dry forests",
      "biome": "2.0",
      "realm": "NT",
      "centerLat": 2.87,
      "centerLng": -74.3,
      "radiusKm": 50
    },
    "60310.0": {
      "id": "60310.0",
      "name": "Trans-Mexican Volcanic Belt pine-oak forests",
      "biome": "3.0",
      "realm": "NT",
      "centerLat": 19.15,
      "centerLng": -99.52,
      "radiusKm": 50
    },
    "61306.0": {
      "id": "61306.0",
      "name": "Cuban cactus scrub",
      "biome": "13.0",
      "realm": "NT",
      "centerLat": 19.86,
      "centerLng": -77.66,
      "radiusKm": 50
    },
    "60120.0": {
      "id": "60120.0",
      "name": "Cuban moist forests",
      "biome": "1.0",
      "realm": "NT",
      "centerLat": 19.87,
      "centerLng": -77.51,
      "radiusKm": 50
    },
    "60902.0": {
      "id": "60902.0",
      "name": "Cuban wetlands",
      "biome": "9.0",
      "realm": "NT",
      "centerLat": 20.55,
      "centerLng": -77.31,
      "radiusKm": 50
    },
    "60213.0": {
      "id": "60213.0",
      "name": "Cuban dry forests",
      "biome": "2.0",
      "realm": "NT",
      "centerLat": 17.41,
      "centerLng": -83.95,
      "radiusKm": 50
    },
    "60146.0": {
      "id": "60146.0",
      "name": "Oaxacan montane forests",
      "biome": "1.0",
      "realm": "NT",
      "centerLat": 17.06,
      "centerLng": -95.57,
      "radiusKm": 50
    },
    "60127.0": {
      "id": "60127.0",
      "name": "Hispaniolan moist forests",
      "biome": "1.0",
      "realm": "NT",
      "centerLat": 18.03,
      "centerLng": -71.17,
      "radiusKm": 50
    },
    "60215.0": {
      "id": "60215.0",
      "name": "Hispaniolan dry forests",
      "biome": "2.0",
      "realm": "NT",
      "centerLat": 17.58,
      "centerLng": -71.51,
      "radiusKm": 50
    },
    "60181.0": {
      "id": "60181.0",
      "name": "Yucat\u00e1n moist forests",
      "biome": "1.0",
      "realm": "NT",
      "centerLat": 19.5,
      "centerLng": -87.64,
      "radiusKm": 50
    },
    "60216.0": {
      "id": "60216.0",
      "name": "Islas Revillagigedo dry forests",
      "biome": "2.0",
      "realm": "NT",
      "centerLat": 18.33,
      "centerLng": -114.76,
      "radiusKm": 50
    },
    "60306.0": {
      "id": "60306.0",
      "name": "Miskito pine forests",
      "biome": "3.0",
      "realm": "NT",
      "centerLat": 13.62,
      "centerLng": -83.56,
      "radiusKm": 50
    },
    "60209.0": {
      "id": "60209.0",
      "name": "Central American dry forests",
      "biome": "2.0",
      "realm": "NT",
      "centerLat": 11.09,
      "centerLng": -74.85,
      "radiusKm": 50
    },
    "60307.0": {
      "id": "60307.0",
      "name": "Sierra de la Laguna pine-oak forests",
      "biome": "3.0",
      "realm": "NT",
      "centerLat": 23.43,
      "centerLng": -109.93,
      "radiusKm": 50
    },
    "60205.0": {
      "id": "60205.0",
      "name": "Balsas dry forests",
      "biome": "2.0",
      "realm": "NT",
      "centerLat": 17.48,
      "centerLng": -100.46,
      "radiusKm": 50
    },
    "60148.0": {
      "id": "60148.0",
      "name": "Pantanos de Centla",
      "biome": "1.0",
      "realm": "NT",
      "centerLat": 18.16,
      "centerLng": -92.28,
      "radiusKm": 149
    },
    "60906.0": {
      "id": "60906.0",
      "name": "Orinoco wetlands",
      "biome": "9.0",
      "realm": "NT",
      "centerLat": 9.38,
      "centerLng": -61.57,
      "radiusKm": 50
    },
    "60167.0": {
      "id": "60167.0",
      "name": "Talamancan montane forests",
      "biome": "1.0",
      "realm": "NT",
      "centerLat": 7.3,
      "centerLng": -80.75,
      "radiusKm": 50
    },
    "60117.0": {
      "id": "60117.0",
      "name": "Cordillera La Costa montane forests",
      "biome": "1.0",
      "realm": "NT",
      "centerLat": 9.99,
      "centerLng": -66.22,
      "radiusKm": 63
    },
    "61309.0": {
      "id": "61309.0",
      "name": "La Costa xeric shrublands",
      "biome": "13.0",
      "realm": "NT",
      "centerLat": 9.74,
      "centerLng": -66.14,
      "radiusKm": 367
    },
    "60155.0": {
      "id": "60155.0",
      "name": "Puerto Rican moist forests",
      "biome": "1.0",
      "realm": "NT",
      "centerLat": 18.11,
      "centerLng": -65.49,
      "radiusKm": 50
    },
    "60903.0": {
      "id": "60903.0",
      "name": "Enriquillo wetlands",
      "biome": "9.0",
      "realm": "NT",
      "centerLat": 18.14,
      "centerLng": -68.68,
      "radiusKm": 50
    },
    "60218.0": {
      "id": "60218.0",
      "name": "Jamaican dry forests",
      "biome": "2.0",
      "realm": "NT",
      "centerLat": 17.9,
      "centerLng": -76.25,
      "radiusKm": 50
    },
    "60131.0": {
      "id": "60131.0",
      "name": "Jamaican moist forests",
      "biome": "1.0",
      "realm": "NT",
      "centerLat": 18.18,
      "centerLng": -77.28,
      "radiusKm": 119
    },
    "60404.0": {
      "id": "60404.0",
      "name": "Valdivian temperate forests",
      "biome": "4.0",
      "realm": "NT",
      "centerLat": -46.94,
      "centerLng": -74.62,
      "radiusKm": 50
    },
    "60129.0": {
      "id": "60129.0",
      "name": "Isthmian-Atlantic moist forests",
      "biome": "1.0",
      "realm": "NT",
      "centerLat": 9.31,
      "centerLng": -82.2,
      "radiusKm": 50
    },
    "61005.0": {
      "id": "61005.0",
      "name": "Cordillera de Merida p\u00e1ramo",
      "biome": "10.0",
      "realm": "NT",
      "centerLat": 8.04,
      "centerLng": -71.94,
      "radiusKm": 50
    },
    "60182.0": {
      "id": "60182.0",
      "name": "Guianan piedmont and lowland moist forests",
      "biome": "1.0",
      "realm": "NT",
      "centerLat": 2.86,
      "centerLng": -60.36,
      "radiusKm": 50
    },
    "60173.0": {
      "id": "60173.0",
      "name": "Uatuma-Trombetas moist forests",
      "biome": "1.0",
      "realm": "NT",
      "centerLat": -2.32,
      "centerLng": -54.65,
      "radiusKm": 50
    },
    "60128.0": {
      "id": "60128.0",
      "name": "Iquitos varze\u00e1",
      "biome": "1.0",
      "realm": "NT",
      "centerLat": -10.9,
      "centerLng": -73.09,
      "radiusKm": 50
    },
    "60123.0": {
      "id": "60123.0",
      "name": "Fernando de Noronha-Atol das Rocas moist forests",
      "biome": "1.0",
      "realm": "NT",
      "centerLat": -3.86,
      "centerLng": -32.44,
      "radiusKm": 50
    },
    "60133.0": {
      "id": "60133.0",
      "name": "Juru\u00e1-Purus moist forests",
      "biome": "1.0",
      "realm": "NT",
      "centerLat": -9.06,
      "centerLng": -68.45,
      "radiusKm": 50
    },
    "60174.0": {
      "id": "60174.0",
      "name": "Ucayali moist forests",
      "biome": "1.0",
      "realm": "NT",
      "centerLat": -9.72,
      "centerLng": -74.82,
      "radiusKm": 170
    },
    "60402.0": {
      "id": "60402.0",
      "name": "Magellanic subpolar forests",
      "biome": "4.0",
      "realm": "NT",
      "centerLat": -55.95,
      "centerLng": -67.27,
      "radiusKm": 50
    },
    "60805.0": {
      "id": "60805.0",
      "name": "Patagonian steppe",
      "biome": "8.0",
      "realm": "NT",
      "centerLat": -52.87,
      "centerLng": -70.71,
      "radiusKm": 50
    },
    "80608.0": {
      "id": "80608.0",
      "name": "Scandinavian and Russian taiga",
      "biome": "6.0",
      "realm": "PA",
      "centerLat": 56.6,
      "centerLng": 49.7,
      "radiusKm": 50
    },
    "81103.0": {
      "id": "81103.0",
      "name": "Cherskii-Kolyma mountain tundra",
      "biome": "11.0",
      "realm": "PA",
      "centerLat": 59.45,
      "centerLng": 146.91,
      "radiusKm": 151
    },
    "51114.0": {
      "id": "51114.0",
      "name": "Low Arctic tundra",
      "biome": "11.0",
      "realm": "NA",
      "centerLat": 55.72,
      "centerLng": -79.19,
      "radiusKm": 50
    },
    "50506.0": {
      "id": "50506.0",
      "name": "British Columbia mainland coastal forests",
      "biome": "5.0",
      "realm": "NA",
      "centerLat": 47.54,
      "centerLng": -123.24,
      "radiusKm": 50
    },
    "80402.0": {
      "id": "80402.0",
      "name": "Atlantic mixed forests",
      "biome": "4.0",
      "realm": "PA",
      "centerLat": 45.92,
      "centerLng": -1.32,
      "radiusKm": 50
    },
    "50606.0": {
      "id": "50606.0",
      "name": "Eastern Canadian Shield taiga",
      "biome": "6.0",
      "realm": "NA",
      "centerLat": 52.26,
      "centerLng": -55.62,
      "radiusKm": 50
    },
    "80811.0": {
      "id": "80811.0",
      "name": "Kazakh upland",
      "biome": "8.0",
      "realm": "PA",
      "centerLat": 48.47,
      "centerLng": 74.92,
      "radiusKm": 335
    },
    "80409.0": {
      "id": "80409.0",
      "name": "Celtic broadleaf forests",
      "biome": "4.0",
      "realm": "PA",
      "centerLat": 51.92,
      "centerLng": -10.35,
      "radiusKm": 50
    },
    "51102.0": {
      "id": "51102.0",
      "name": "Aleutian Islands tundra",
      "biome": "11.0",
      "realm": "NA",
      "centerLat": 51.5,
      "centerLng": 179.05,
      "radiusKm": 50
    },
    "50525.0": {
      "id": "50525.0",
      "name": "Queen Charlotte Islands",
      "biome": "5.0",
      "realm": "NA",
      "centerLat": 52.05,
      "centerLng": -131.04,
      "radiusKm": 50
    },
    "50605.0": {
      "id": "50605.0",
      "name": "Eastern Canadian forests",
      "biome": "6.0",
      "realm": "NA",
      "centerLat": 46.52,
      "centerLng": -60.72,
      "radiusKm": 66
    },
    "60217.0": {
      "id": "60217.0",
      "name": "Jalisco dry forests",
      "biome": "2.0",
      "realm": "NT",
      "centerLat": 21.46,
      "centerLng": -106.43,
      "radiusKm": 50
    },
    "60111.0": {
      "id": "60111.0",
      "name": "Central American Atlantic moist forests",
      "biome": "1.0",
      "realm": "NT",
      "centerLat": 15.0,
      "centerLng": -83.61,
      "radiusKm": 57
    },
    "60110.0": {
      "id": "60110.0",
      "name": "Cayos Miskitos-San Andr\u00e9s and Providencia moist forests",
      "biome": "1.0",
      "realm": "NT",
      "centerLat": 12.16,
      "centerLng": -83.05,
      "radiusKm": 50
    },
    "60109.0": {
      "id": "60109.0",
      "name": "Cauca Valley montane forests",
      "biome": "1.0",
      "realm": "NT",
      "centerLat": 4.84,
      "centerLng": -76.01,
      "radiusKm": 335
    },
    "60130.0": {
      "id": "60130.0",
      "name": "Isthmian-Pacific moist forests",
      "biome": "1.0",
      "realm": "NT",
      "centerLat": 7.26,
      "centerLng": -81.8,
      "radiusKm": 50
    },
    "60125.0": {
      "id": "60125.0",
      "name": "Guianan moist forests",
      "biome": "1.0",
      "realm": "NT",
      "centerLat": 1.75,
      "centerLng": -57.5,
      "radiusKm": 50
    },
    "60226.0": {
      "id": "60226.0",
      "name": "Puerto Rican dry forests",
      "biome": "2.0",
      "realm": "NT",
      "centerLat": 18.31,
      "centerLng": -65.28,
      "radiusKm": 50
    },
    "61316.0": {
      "id": "61316.0",
      "name": "Tehuac\u00e1n Valley matorral",
      "biome": "13.0",
      "realm": "NT",
      "centerLat": 18.85,
      "centerLng": -97.61,
      "radiusKm": 102
    },
    "60114.0": {
      "id": "60114.0",
      "name": "Chimalapas montane forests",
      "biome": "1.0",
      "realm": "NT",
      "centerLat": 16.65,
      "centerLng": -94.19,
      "radiusKm": 50
    },
    "60107.0": {
      "id": "60107.0",
      "name": "Caqueta moist forests",
      "biome": "1.0",
      "realm": "NT",
      "centerLat": 2.01,
      "centerLng": -75.12,
      "radiusKm": 50
    },
    "60156.0": {
      "id": "60156.0",
      "name": "Purus varze\u00e1",
      "biome": "1.0",
      "realm": "NT",
      "centerLat": -9.31,
      "centerLng": -68.44,
      "radiusKm": 50
    },
    "60115.0": {
      "id": "60115.0",
      "name": "Choc\u00f3-Dari\u00e9n moist forests",
      "biome": "1.0",
      "realm": "NT",
      "centerLat": 2.97,
      "centerLng": -78.19,
      "radiusKm": 50
    },
    "60138.0": {
      "id": "60138.0",
      "name": "Maraj\u00f3 varze\u00e1",
      "biome": "1.0",
      "realm": "NT",
      "centerLat": -2.23,
      "centerLng": -53.62,
      "radiusKm": 50
    },
    "61307.0": {
      "id": "61307.0",
      "name": "Gal\u00e1pagos Islands scrubland mosaic",
      "biome": "13.0",
      "realm": "NT",
      "centerLat": -1.38,
      "centerLng": -89.68,
      "radiusKm": 50
    },
    "60214.0": {
      "id": "60214.0",
      "name": "Ecuadorian dry forests",
      "biome": "2.0",
      "realm": "NT",
      "centerLat": -2.88,
      "centerLng": -80.14,
      "radiusKm": 50
    },
    "60304.0": {
      "id": "60304.0",
      "name": "Cuban pine forests",
      "biome": "3.0",
      "realm": "NT",
      "centerLat": 20.28,
      "centerLng": -74.48,
      "radiusKm": 50
    },
    "60147.0": {
      "id": "60147.0",
      "name": "Orinoco Delta swamp forests",
      "biome": "1.0",
      "realm": "NT",
      "centerLat": 9.66,
      "centerLng": -61.43,
      "radiusKm": 50
    },
    "60108.0": {
      "id": "60108.0",
      "name": "Catatumbo moist forests",
      "biome": "1.0",
      "realm": "NT",
      "centerLat": 9.22,
      "centerLng": -72.03,
      "radiusKm": 78
    },
    "60175.0": {
      "id": "60175.0",
      "name": "Venezuelan Andes montane forests",
      "biome": "1.0",
      "realm": "NT",
      "centerLat": 8.8,
      "centerLng": -70.83,
      "radiusKm": 226
    },
    "61303.0": {
      "id": "61303.0",
      "name": "Atacama desert",
      "biome": "13.0",
      "realm": "NT",
      "centerLat": -22.35,
      "centerLng": -69.41,
      "radiusKm": 452
    },
    "61406.0": {
      "id": "61406.0",
      "name": "Southern Atlantic mangroves",
      "biome": "14.0",
      "realm": "NT",
      "centerLat": -28.51,
      "centerLng": -48.89,
      "radiusKm": 50
    },
    "60703.0": {
      "id": "60703.0",
      "name": "Campos Rupestres montane savanna",
      "biome": "7.0",
      "realm": "NT",
      "centerLat": -22.96,
      "centerLng": -44.97,
      "radiusKm": 50
    },
    "60907.0": {
      "id": "60907.0",
      "name": "Pantanal",
      "biome": "9.0",
      "realm": "NT",
      "centerLat": -17.43,
      "centerLng": -55.31,
      "radiusKm": 50
    },
    "60165.0": {
      "id": "60165.0",
      "name": "Southern Andean Yungas",
      "biome": "1.0",
      "realm": "NT",
      "centerLat": -26.19,
      "centerLng": -66.15,
      "radiusKm": 50
    },
    "60104.0": {
      "id": "60104.0",
      "name": "Bahia interior forests",
      "biome": "1.0",
      "realm": "NT",
      "centerLat": -18.27,
      "centerLng": -43.91,
      "radiusKm": 116
    },
    "60206.0": {
      "id": "60206.0",
      "name": "Bolivian montane dry forests",
      "biome": "2.0",
      "realm": "NT",
      "centerLat": -18.35,
      "centerLng": -65.11,
      "radiusKm": 214
    },
    "60102.0": {
      "id": "60102.0",
      "name": "Atlantic Coast restingas",
      "biome": "1.0",
      "realm": "NT",
      "centerLat": -32.92,
      "centerLng": -52.75,
      "radiusKm": 119
    },
    "60704.0": {
      "id": "60704.0",
      "name": "Cerrado",
      "biome": "7.0",
      "realm": "NT",
      "centerLat": -23.38,
      "centerLng": -55.17,
      "radiusKm": 96
    },
    "60150.0": {
      "id": "60150.0",
      "name": "Alto Paran\u00e1 Atlantic forests",
      "biome": "1.0",
      "realm": "NT",
      "centerLat": -29.32,
      "centerLng": -52.69,
      "radiusKm": 292
    },
    "51113.0": {
      "id": "51113.0",
      "name": "Kalaallit Nunaat low arctic tundra",
      "biome": "11.0",
      "realm": "NA",
      "centerLat": 59.82,
      "centerLng": -43.57,
      "radiusKm": 50
    },
    "51109.0": {
      "id": "51109.0",
      "name": "Davis Highlands tundra",
      "biome": "11.0",
      "realm": "NA",
      "centerLat": 65.55,
      "centerLng": -62.49,
      "radiusKm": 50
    },
    "51115.0": {
      "id": "51115.0",
      "name": "Middle Arctic tundra",
      "biome": "11.0",
      "realm": "NA",
      "centerLat": 60.39,
      "centerLng": -68.14,
      "radiusKm": 50
    },
    "80520.0": {
      "id": "80520.0",
      "name": "Scandinavian coastal conifer forests",
      "biome": "5.0",
      "realm": "PA",
      "centerLat": 58.45,
      "centerLng": 5.95,
      "radiusKm": 50
    },
    "81111.0": {
      "id": "81111.0",
      "name": "Taimyr-Central Siberian tundra",
      "biome": "11.0",
      "realm": "PA",
      "centerLat": 66.05,
      "centerLng": 93.28,
      "radiusKm": 201
    },
    "51110.0": {
      "id": "51110.0",
      "name": "High Arctic tundra",
      "biome": "11.0",
      "realm": "NA",
      "centerLat": 72.39,
      "centerLng": -78.9,
      "radiusKm": 50
    },
    "80602.0": {
      "id": "80602.0",
      "name": "Iceland boreal birch forests and alpine tundra",
      "biome": "6.0",
      "realm": "PA",
      "centerLat": 63.31,
      "centerLng": -20.59,
      "radiusKm": 50
    },
    "-9999.0": {
      "id": "-9999.0",
      "name": "Rock and Ice",
      "biome": "99.0",
      "realm": "",
      "centerLat": -78.73,
      "centerLng": 0.0,
      "radiusKm": 2000
    },
    "81104.0": {
      "id": "81104.0",
      "name": "Chukchi Peninsula tundra",
      "biome": "11.0",
      "realm": "PA",
      "centerLat": 64.63,
      "centerLng": -172.75,
      "radiusKm": 50
    },
    "51111.0": {
      "id": "51111.0",
      "name": "Interior Yukon-Alaska alpine tundra",
      "biome": "11.0",
      "realm": "NA",
      "centerLat": 62.77,
      "centerLng": -157.02,
      "radiusKm": 50
    },
    "50524.0": {
      "id": "50524.0",
      "name": "Puget lowland forests",
      "biome": "5.0",
      "realm": "NA",
      "centerLat": 47.15,
      "centerLng": -122.71,
      "radiusKm": 50
    },
    "50602.0": {
      "id": "50602.0",
      "name": "Central Canadian Shield forests",
      "biome": "6.0",
      "realm": "NA",
      "centerLat": 48.39,
      "centerLng": -88.62,
      "radiusKm": 50
    },
    "81001.0": {
      "id": "81001.0",
      "name": "Altai alpine meadow and tundra",
      "biome": "10.0",
      "realm": "PA",
      "centerLat": 47.21,
      "centerLng": 82.62,
      "radiusKm": 155
    },
    "80512.0": {
      "id": "80512.0",
      "name": "Khangai Mountains conifer forests",
      "biome": "5.0",
      "realm": "PA",
      "centerLat": 48.39,
      "centerLng": 98.93,
      "radiusKm": 119
    },
    "50611.0": {
      "id": "50611.0",
      "name": "Newfoundland Highland forests",
      "biome": "6.0",
      "realm": "NA",
      "centerLat": 48.89,
      "centerLng": -57.08,
      "radiusKm": 82
    },
    "81007.0": {
      "id": "81007.0",
      "name": "Khangai Mountains alpine meadow",
      "biome": "10.0",
      "realm": "PA",
      "centerLat": 48.2,
      "centerLng": 96.51,
      "radiusKm": 50
    },
    "40163.0": {
      "id": "40163.0",
      "name": "Tenasserim-South Thailand semi-evergreen rain forests",
      "biome": "1.0",
      "realm": "IM",
      "centerLat": 6.23,
      "centerLng": 99.81,
      "radiusKm": 50
    },
    "40132.0": {
      "id": "40132.0",
      "name": "Myanmar coastal rain forests",
      "biome": "1.0",
      "realm": "IM",
      "centerLat": 11.24,
      "centerLng": 98.26,
      "radiusKm": 50
    },
    "31305.0": {
      "id": "31305.0",
      "name": "Ethiopian xeric grasslands and shrublands",
      "biome": "13.0",
      "realm": "AT",
      "centerLat": 11.5,
      "centerLng": 43.46,
      "radiusKm": 50
    },
    "40143.0": {
      "id": "40143.0",
      "name": "Palawan rain forests",
      "biome": "1.0",
      "realm": "IM",
      "centerLat": 7.97,
      "centerLng": 117.01,
      "radiusKm": 50
    },
    "70104.0": {
      "id": "70104.0",
      "name": "Eastern Micronesia tropical moist forests",
      "biome": "1.0",
      "realm": "OC",
      "centerLat": -2.64,
      "centerLng": 176.82,
      "radiusKm": 50
    },
    "31008.0": {
      "id": "31008.0",
      "name": "Ethiopian montane moorlands",
      "biome": "10.0",
      "realm": "AT",
      "centerLat": 5.75,
      "centerLng": 37.92,
      "radiusKm": 50
    },
    "40129.0": {
      "id": "40129.0",
      "name": "Mindanao-Eastern Visayas rain forests",
      "biome": "1.0",
      "realm": "IM",
      "centerLat": 5.44,
      "centerLng": 125.47,
      "radiusKm": 50
    },
    "30112.0": {
      "id": "30112.0",
      "name": "Ethiopian montane forests",
      "biome": "1.0",
      "realm": "AT",
      "centerLat": 11.63,
      "centerLng": 37.36,
      "radiusKm": 762
    },
    "30111.0": {
      "id": "30111.0",
      "name": "Eastern Guinean forests",
      "biome": "1.0",
      "realm": "AT",
      "centerLat": 4.98,
      "centerLng": -6.09,
      "radiusKm": 50
    },
    "40114.0": {
      "id": "40114.0",
      "name": "Greater Negros-Panay rain forests",
      "biome": "1.0",
      "realm": "IM",
      "centerLat": 10.26,
      "centerLng": 124.04,
      "radiusKm": 50
    },
    "61004.0": {
      "id": "61004.0",
      "name": "Cordillera Central p\u00e1ramo",
      "biome": "10.0",
      "realm": "NT",
      "centerLat": -8.07,
      "centerLng": -78.05,
      "radiusKm": 60
    },
    "60149.0": {
      "id": "60149.0",
      "name": "Guianan freshwater swamp forests",
      "biome": "1.0",
      "realm": "NT",
      "centerLat": 5.72,
      "centerLng": -55.58,
      "radiusKm": 175
    },
    "81110.0": {
      "id": "81110.0",
      "name": "Scandinavian Montane Birch forest and grasslands",
      "biome": "11.0",
      "realm": "PA",
      "centerLat": 60.79,
      "centerLng": 9.41,
      "radiusKm": 575
    },
    "51105.0": {
      "id": "51105.0",
      "name": "Baffin coastal tundra",
      "biome": "11.0",
      "realm": "NA",
      "centerLat": 69.06,
      "centerLng": -67.6,
      "radiusKm": 50
    },
    "51112.0": {
      "id": "51112.0",
      "name": "Kalaallit Nunaat high arctic tundra",
      "biome": "11.0",
      "realm": "NA",
      "centerLat": 69.69,
      "centerLng": -23.41,
      "radiusKm": 50
    },
    "51103.0": {
      "id": "51103.0",
      "name": "Arctic coastal tundra",
      "biome": "11.0",
      "realm": "NA",
      "centerLat": 68.96,
      "centerLng": -135.61,
      "radiusKm": 50
    },
    "81114.0": {
      "id": "81114.0",
      "name": "Yamal-Gydan tundra",
      "biome": "11.0",
      "realm": "PA",
      "centerLat": 68.63,
      "centerLng": 67.43,
      "radiusKm": 50
    },
    "60305.0": {
      "id": "60305.0",
      "name": "Hispaniolan pine forests",
      "biome": "3.0",
      "realm": "NT",
      "centerLat": 18.33,
      "centerLng": -73.48,
      "radiusKm": 50
    },
    "60136.0": {
      "id": "60136.0",
      "name": "Magdalena Valley montane forests",
      "biome": "1.0",
      "realm": "NT",
      "centerLat": 5.38,
      "centerLng": -74.5,
      "radiusKm": 491
    },
    "60122.0": {
      "id": "60122.0",
      "name": "Eastern Panamanian montane forests",
      "biome": "1.0",
      "realm": "NT",
      "centerLat": 7.33,
      "centerLng": -77.9,
      "radiusKm": 50
    },
    "60177.0": {
      "id": "60177.0",
      "name": "Veracruz montane forests",
      "biome": "1.0",
      "realm": "NT",
      "centerLat": 20.64,
      "centerLng": -98.28,
      "radiusKm": 123
    },
    "60235.0": {
      "id": "60235.0",
      "name": "Yucat\u00e1n dry forests",
      "biome": "2.0",
      "realm": "NT",
      "centerLat": 21.28,
      "centerLng": -87.28,
      "radiusKm": 50
    },
    "60224.0": {
      "id": "60224.0",
      "name": "Panamanian dry forests",
      "biome": "2.0",
      "realm": "NT",
      "centerLat": 9.0,
      "centerLng": -79.38,
      "radiusKm": 50
    },
    "60116.0": {
      "id": "60116.0",
      "name": "Cocos Island moist forests",
      "biome": "1.0",
      "realm": "NT",
      "centerLat": 5.53,
      "centerLng": -87.06,
      "radiusKm": 50
    },
    "60204.0": {
      "id": "60204.0",
      "name": "Baj\u00edo dry forests",
      "biome": "2.0",
      "realm": "NT",
      "centerLat": 20.51,
      "centerLng": -102.2,
      "radiusKm": 227
    },
    "60121.0": {
      "id": "60121.0",
      "name": "Eastern Cordillera real montane forests",
      "biome": "1.0",
      "realm": "NT",
      "centerLat": -2.04,
      "centerLng": -78.26,
      "radiusKm": 509
    },
    "60166.0": {
      "id": "60166.0",
      "name": "Southwest Amazon moist forests",
      "biome": "1.0",
      "realm": "NT",
      "centerLat": -12.62,
      "centerLng": -64.89,
      "radiusKm": 50
    },
    "60702.0": {
      "id": "60702.0",
      "name": "Beni savanna",
      "biome": "7.0",
      "realm": "NT",
      "centerLat": -16.05,
      "centerLng": -65.3,
      "radiusKm": 50
    },
    "61315.0": {
      "id": "61315.0",
      "name": "Sechura desert",
      "biome": "13.0",
      "realm": "NT",
      "centerLat": -14.29,
      "centerLng": -76.2,
      "radiusKm": 50
    },
    "61003.0": {
      "id": "61003.0",
      "name": "Central Andean wet puna",
      "biome": "10.0",
      "realm": "NT",
      "centerLat": -16.3,
      "centerLng": -68.76,
      "radiusKm": 50
    },
    "81101.0": {
      "id": "81101.0",
      "name": "Arctic desert",
      "biome": "11.0",
      "realm": "PA",
      "centerLat": 76.57,
      "centerLng": 25.26,
      "radiusKm": 50
    },
    "51106.0": {
      "id": "51106.0",
      "name": "Beringia lowland tundra",
      "biome": "11.0",
      "realm": "NA",
      "centerLat": 54.85,
      "centerLng": -164.07,
      "radiusKm": 75
    },
    "60233.0": {
      "id": "60233.0",
      "name": "Veracruz dry forests",
      "biome": "2.0",
      "realm": "NT",
      "centerLat": 19.11,
      "centerLng": -96.42,
      "radiusKm": 78
    },
    "60161.0": {
      "id": "60161.0",
      "name": "Sierra de los Tuxtlas",
      "biome": "1.0",
      "realm": "NT",
      "centerLat": 18.34,
      "centerLng": -94.94,
      "radiusKm": 66
    },
    "60230.0": {
      "id": "60230.0",
      "name": "Southern Pacific dry forests",
      "biome": "2.0",
      "realm": "NT",
      "centerLat": 16.94,
      "centerLng": -97.82,
      "radiusKm": 510
    },
    "60126.0": {
      "id": "60126.0",
      "name": "Gurupa varze\u00e1",
      "biome": "1.0",
      "realm": "NT",
      "centerLat": -2.26,
      "centerLng": -54.37,
      "radiusKm": 50
    },
    "60144.0": {
      "id": "60144.0",
      "name": "Northeastern Brazil restingas",
      "biome": "1.0",
      "realm": "NT",
      "centerLat": -2.95,
      "centerLng": -40.5,
      "radiusKm": 93
    },
    "60141.0": {
      "id": "60141.0",
      "name": "Monte Alegre varze\u00e1",
      "biome": "1.0",
      "realm": "NT",
      "centerLat": -11.47,
      "centerLng": -65.11,
      "radiusKm": 60
    },
    "60106.0": {
      "id": "60106.0",
      "name": "Caatinga Enclaves moist forests",
      "biome": "1.0",
      "realm": "NT",
      "centerLat": -7.2,
      "centerLng": -39.3,
      "radiusKm": 50
    },
    "51107.0": {
      "id": "51107.0",
      "name": "Beringia upland tundra",
      "biome": "11.0",
      "realm": "NA",
      "centerLat": 58.68,
      "centerLng": -160.28,
      "radiusKm": 50
    },
    "80429.0": {
      "id": "80429.0",
      "name": "North Atlantic moist mixed forests",
      "biome": "4.0",
      "realm": "PA",
      "centerLat": 54.99,
      "centerLng": -8.55,
      "radiusKm": 50
    },
    "80436.0": {
      "id": "80436.0",
      "name": "Sarmatic mixed forests",
      "biome": "4.0",
      "realm": "PA",
      "centerLat": 56.11,
      "centerLng": 15.45,
      "radiusKm": 50
    },
    "50520.0": {
      "id": "50520.0",
      "name": "Northern Pacific coastal forests",
      "biome": "5.0",
      "realm": "NA",
      "centerLat": 54.74,
      "centerLng": -130.71,
      "radiusKm": 50
    },
    "51118.0": {
      "id": "51118.0",
      "name": "Torngat Mountain tundra",
      "biome": "11.0",
      "realm": "NA",
      "centerLat": 57.99,
      "centerLng": -62.18,
      "radiusKm": 50
    },
    "60211.0": {
      "id": "60211.0",
      "name": "Chiapas Depression dry forests",
      "biome": "2.0",
      "realm": "NT",
      "centerLat": 16.28,
      "centerLng": -92.88,
      "radiusKm": 160
    },
    "60162.0": {
      "id": "60162.0",
      "name": "Sierra Madre de Chiapas moist forests",
      "biome": "1.0",
      "realm": "NT",
      "centerLat": 15.15,
      "centerLng": -91.79,
      "radiusKm": 262
    },
    "61312.0": {
      "id": "61312.0",
      "name": "Motagua Valley thornscrub",
      "biome": "13.0",
      "realm": "NT",
      "centerLat": 15.0,
      "centerLng": -89.7,
      "radiusKm": 65
    },
    "61313.0": {
      "id": "61313.0",
      "name": "Paraguana xeric scrub",
      "biome": "13.0",
      "realm": "NT",
      "centerLat": 10.91,
      "centerLng": -70.42,
      "radiusKm": 193
    },
    "60219.0": {
      "id": "60219.0",
      "name": "Lara-Falc\u00f3n dry forests",
      "biome": "2.0",
      "realm": "NT",
      "centerLat": 10.8,
      "centerLng": -69.23,
      "radiusKm": 131
    },
    "60118.0": {
      "id": "60118.0",
      "name": "Cordillera Oriental montane forests",
      "biome": "1.0",
      "realm": "NT",
      "centerLat": 6.26,
      "centerLng": -73.94,
      "radiusKm": 597
    },
    "60222.0": {
      "id": "60222.0",
      "name": "Maracaibo dry forests",
      "biome": "2.0",
      "realm": "NT",
      "centerLat": 9.81,
      "centerLng": -71.41,
      "radiusKm": 213
    },
    "61007.0": {
      "id": "61007.0",
      "name": "Santa Marta p\u00e1ramo",
      "biome": "10.0",
      "realm": "NT",
      "centerLat": 10.81,
      "centerLng": -73.65,
      "radiusKm": 50
    },
    "60137.0": {
      "id": "60137.0",
      "name": "Magdalena-Urab\u00e1 moist forests",
      "biome": "1.0",
      "realm": "NT",
      "centerLat": 7.75,
      "centerLng": -75.1,
      "radiusKm": 333
    },
    "60140.0": {
      "id": "60140.0",
      "name": "Mato Grosso seasonal forests",
      "biome": "1.0",
      "realm": "NT",
      "centerLat": -10.77,
      "centerLng": -49.56,
      "radiusKm": 50
    },
    "60180.0": {
      "id": "60180.0",
      "name": "Xingu-Tocantins-Araguaia moist forests",
      "biome": "1.0",
      "realm": "NT",
      "centerLat": -10.32,
      "centerLng": -50.53,
      "radiusKm": 50
    },
    "60157.0": {
      "id": "60157.0",
      "name": "Purus-Madeira moist forests",
      "biome": "1.0",
      "realm": "NT",
      "centerLat": -8.45,
      "centerLng": -67.42,
      "radiusKm": 50
    },
    "60152.0": {
      "id": "60152.0",
      "name": "Pernambuco interior forests",
      "biome": "1.0",
      "realm": "NT",
      "centerLat": -10.99,
      "centerLng": -37.25,
      "radiusKm": 113
    },
    "81222.0": {
      "id": "81222.0",
      "name": "Tyrrhenian-Adriatic Sclerophyllous and mixed forests",
      "biome": "12.0",
      "realm": "PA",
      "centerLat": 35.88,
      "centerLng": 14.43,
      "radiusKm": 50
    },
    "80521.0": {
      "id": "80521.0",
      "name": "Tian Shan montane conifer forests",
      "biome": "5.0",
      "realm": "PA",
      "centerLat": 42.55,
      "centerLng": 80.84,
      "radiusKm": 50
    },
    "50411.0": {
      "id": "50411.0",
      "name": "Northeastern coastal forests",
      "biome": "4.0",
      "realm": "NA",
      "centerLat": 39.07,
      "centerLng": -74.74,
      "radiusKm": 50
    },
    "80414.0": {
      "id": "80414.0",
      "name": "Changbai Mountains mixed forests",
      "biome": "4.0",
      "realm": "PA",
      "centerLat": 41.42,
      "centerLng": 127.48,
      "radiusKm": 393
    },
    "80406.0": {
      "id": "80406.0",
      "name": "Cantabrian mixed forests",
      "biome": "4.0",
      "realm": "PA",
      "centerLat": 42.54,
      "centerLng": -8.87,
      "radiusKm": 50
    },
    "80808.0": {
      "id": "80808.0",
      "name": "Gissaro-Alai open woodlands",
      "biome": "8.0",
      "realm": "PA",
      "centerLat": 40.25,
      "centerLng": 70.53,
      "radiusKm": 584
    },
    "50508.0": {
      "id": "50508.0",
      "name": "Central and Southern Cascades forests",
      "biome": "5.0",
      "realm": "NA",
      "centerLat": 44.81,
      "centerLng": -122.14,
      "radiusKm": 326
    },
    "80435.0": {
      "id": "80435.0",
      "name": "Rodope montane mixed forests",
      "biome": "4.0",
      "realm": "PA",
      "centerLat": 41.75,
      "centerLng": 22.71,
      "radiusKm": 57
    },
    "80510.0": {
      "id": "80510.0",
      "name": "Hokkaido montane conifer forests",
      "biome": "5.0",
      "realm": "PA",
      "centerLat": 42.58,
      "centerLng": 140.83,
      "radiusKm": 50
    },
    "50516.0": {
      "id": "50516.0",
      "name": "Klamath-Siskiyou forests",
      "biome": "5.0",
      "realm": "NA",
      "centerLat": 41.44,
      "centerLng": -122.95,
      "radiusKm": 290
    },
    "81107.0": {
      "id": "81107.0",
      "name": "Northeast Siberian coastal tundra",
      "biome": "11.0",
      "realm": "PA",
      "centerLat": 69.51,
      "centerLng": 161.52,
      "radiusKm": 50
    },
    "81106.0": {
      "id": "81106.0",
      "name": "Kola Peninsula tundra",
      "biome": "11.0",
      "realm": "PA",
      "centerLat": 67.82,
      "centerLng": 40.49,
      "radiusKm": 50
    },
    "60145.0": {
      "id": "60145.0",
      "name": "Northwestern Andean montane forests",
      "biome": "1.0",
      "realm": "NT",
      "centerLat": 2.51,
      "centerLng": -77.65,
      "radiusKm": 688
    },
    "60207.0": {
      "id": "60207.0",
      "name": "Cauca Valley dry forests",
      "biome": "2.0",
      "realm": "NT",
      "centerLat": 5.15,
      "centerLng": -76.01,
      "radiusKm": 248
    },
    "60221.0": {
      "id": "60221.0",
      "name": "Magdalena Valley dry forests",
      "biome": "2.0",
      "realm": "NT",
      "centerLat": 3.7,
      "centerLng": -75.14,
      "radiusKm": 210
    },
    "60143.0": {
      "id": "60143.0",
      "name": "Negro-Branco moist forests",
      "biome": "1.0",
      "realm": "NT",
      "centerLat": 1.89,
      "centerLng": -67.32,
      "radiusKm": 697
    },
    "61311.0": {
      "id": "61311.0",
      "name": "Malpelo Island xeric scrub",
      "biome": "13.0",
      "realm": "NT",
      "centerLat": 3.98,
      "centerLng": -81.6,
      "radiusKm": 50
    },
    "60142.0": {
      "id": "60142.0",
      "name": "Napo moist forests",
      "biome": "1.0",
      "realm": "NT",
      "centerLat": -1.52,
      "centerLng": -75.73,
      "radiusKm": 496
    },
    "60178.0": {
      "id": "60178.0",
      "name": "Western Ecuador moist forests",
      "biome": "1.0",
      "realm": "NT",
      "centerLat": -0.53,
      "centerLng": -79.52,
      "radiusKm": 284
    },
    "81108.0": {
      "id": "81108.0",
      "name": "Northwest Russian-Novaya Zemlya tundra",
      "biome": "11.0",
      "realm": "PA",
      "centerLat": 65.98,
      "centerLng": 59.27,
      "radiusKm": 50
    },
    "60170.0": {
      "id": "60170.0",
      "name": "Tocantins/Pindare moist forests",
      "biome": "1.0",
      "realm": "NT",
      "centerLat": -3.16,
      "centerLng": -44.66,
      "radiusKm": 50
    },
    "60905.0": {
      "id": "60905.0",
      "name": "Guayaquil flooded grasslands",
      "biome": "9.0",
      "realm": "NT",
      "centerLat": -2.23,
      "centerLng": -79.64,
      "radiusKm": 78
    },
    "60135.0": {
      "id": "60135.0",
      "name": "Madeira-Tapaj\u00f3s moist forests",
      "biome": "1.0",
      "realm": "NT",
      "centerLat": -11.24,
      "centerLng": -55.44,
      "radiusKm": 50
    },
    "60168.0": {
      "id": "60168.0",
      "name": "Tapaj\u00f3s-Xingu moist forests",
      "biome": "1.0",
      "realm": "NT",
      "centerLat": -6.16,
      "centerLng": -54.9,
      "radiusKm": 606
    },
    "60139.0": {
      "id": "60139.0",
      "name": "Maranh\u00e3o Baba\u00e7u forests",
      "biome": "1.0",
      "realm": "NT",
      "centerLat": -4.31,
      "centerLng": -43.91,
      "radiusKm": 392
    },
    "60232.0": {
      "id": "60232.0",
      "name": "Tumbes-Piura dry forests",
      "biome": "2.0",
      "realm": "NT",
      "centerLat": -5.18,
      "centerLng": -80.07,
      "radiusKm": 299
    },
    "81113.0": {
      "id": "81113.0",
      "name": "Wrangel Island arctic desert",
      "biome": "11.0",
      "realm": "PA",
      "centerLat": 71.24,
      "centerLng": -178.72,
      "radiusKm": 147
    },
    "80601.0": {
      "id": "80601.0",
      "name": "East Siberian taiga",
      "biome": "6.0",
      "realm": "PA",
      "centerLat": 55.38,
      "centerLng": 132.77,
      "radiusKm": 97
    },
    "80403.0": {
      "id": "80403.0",
      "name": "Azores temperate mixed forests",
      "biome": "4.0",
      "realm": "PA",
      "centerLat": 37.81,
      "centerLng": -25.5,
      "radiusKm": 50
    },
    "80812.0": {
      "id": "80812.0",
      "name": "Middle East steppe",
      "biome": "8.0",
      "realm": "PA",
      "centerLat": 33.38,
      "centerLng": 40.49,
      "radiusKm": 710
    },
    "81201.0": {
      "id": "81201.0",
      "name": "Aegean and Western Turkey sclerophyllous and mixed forests",
      "biome": "12.0",
      "realm": "PA",
      "centerLat": 35.37,
      "centerLng": 26.94,
      "radiusKm": 50
    },
    "80511.0": {
      "id": "80511.0",
      "name": "Honshu alpine conifer forests",
      "biome": "5.0",
      "realm": "PA",
      "centerLat": 35.37,
      "centerLng": 138.75,
      "radiusKm": 50
    },
    "80513.0": {
      "id": "80513.0",
      "name": "Mediterranean conifer and mixed forests",
      "biome": "5.0",
      "realm": "PA",
      "centerLat": 32.26,
      "centerLng": -5.27,
      "radiusKm": 84
    },
    "81006.0": {
      "id": "81006.0",
      "name": "Karakoram-West Tibetan Plateau alpine steppe",
      "biome": "10.0",
      "realm": "PA",
      "centerLat": 36.65,
      "centerLng": 72.0,
      "radiusKm": 50
    },
    "51117.0": {
      "id": "51117.0",
      "name": "Pacific Coastal Mountain icefields and tundra",
      "biome": "11.0",
      "realm": "NA",
      "centerLat": 54.76,
      "centerLng": -130.54,
      "radiusKm": 50
    },
    "61304.0": {
      "id": "61304.0",
      "name": "Caatinga",
      "biome": "13.0",
      "realm": "NT",
      "centerLat": -16.53,
      "centerLng": -41.56,
      "radiusKm": 50
    },
    "60210.0": {
      "id": "60210.0",
      "name": "Dry Chaco",
      "biome": "7.0",
      "realm": "NT",
      "centerLat": -25.7,
      "centerLng": -62.86,
      "radiusKm": 1054
    },
    "50302.0": {
      "id": "50302.0",
      "name": "Sierra Madre Occidental pine-oak forests",
      "biome": "3.0",
      "realm": "NA",
      "centerLat": 21.04,
      "centerLng": -102.7,
      "radiusKm": 50
    },
    "41403.0": {
      "id": "41403.0",
      "name": "Indus River Delta-Arabian Sea mangroves",
      "biome": "14.0",
      "realm": "IM",
      "centerLat": 21.12,
      "centerLng": 72.68,
      "radiusKm": 50
    },
    "50502.0": {
      "id": "50502.0",
      "name": "Alberta-British Columbia foothills forests",
      "biome": "5.0",
      "realm": "NA",
      "centerLat": 53.56,
      "centerLng": -117.94,
      "radiusKm": 481
    },
    "81318.0": {
      "id": "81318.0",
      "name": "Kazakh semi-desert",
      "biome": "13.0",
      "realm": "PA",
      "centerLat": 48.21,
      "centerLng": 66.33,
      "radiusKm": 1684
    },
    "81112.0": {
      "id": "81112.0",
      "name": "Trans-Baikal Bald Mountain tundra",
      "biome": "11.0",
      "realm": "PA",
      "centerLat": 53.02,
      "centerLng": 115.33,
      "radiusKm": 50
    },
    "80816.0": {
      "id": "80816.0",
      "name": "Selenge-Orkhon forest steppe",
      "biome": "8.0",
      "realm": "PA",
      "centerLat": 49.29,
      "centerLng": 103.22,
      "radiusKm": 927
    },
    "81207.0": {
      "id": "81207.0",
      "name": "Eastern Mediterranean conifer-sclerophyllous-broadleaf forests",
      "biome": "12.0",
      "realm": "PA",
      "centerLat": 30.25,
      "centerLng": 35.8,
      "radiusKm": 83
    },
    "40122.0": {
      "id": "40122.0",
      "name": "Luzon montane rain forests",
      "biome": "1.0",
      "realm": "IM",
      "centerLat": 16.82,
      "centerLng": 121.63,
      "radiusKm": 132
    },
    "30722.0": {
      "id": "30722.0",
      "name": "West Sudanian savanna",
      "biome": "7.0",
      "realm": "AT",
      "centerLat": 14.65,
      "centerLng": -17.47,
      "radiusKm": 50
    },
    "41402.0": {
      "id": "41402.0",
      "name": "Indochina mangroves",
      "biome": "14.0",
      "realm": "IM",
      "centerLat": 6.49,
      "centerLng": 101.81,
      "radiusKm": 50
    },
    "30707.0": {
      "id": "30707.0",
      "name": "Guinean forest-savanna mosaic",
      "biome": "7.0",
      "realm": "AT",
      "centerLat": 8.12,
      "centerLng": -13.22,
      "radiusKm": 50
    },
    "50802.0": {
      "id": "50802.0",
      "name": "Canadian Aspen forests and parklands",
      "biome": "8.0",
      "realm": "NA",
      "centerLat": 51.89,
      "centerLng": -106.69,
      "radiusKm": 1046
    },
    "60153.0": {
      "id": "60153.0",
      "name": "Peruvian Yungas",
      "biome": "1.0",
      "realm": "NT",
      "centerLat": -9.14,
      "centerLng": -75.39,
      "radiusKm": 50
    },
    "60223.0": {
      "id": "60223.0",
      "name": "Mara\u00f1\u00f3n dry forests",
      "biome": "2.0",
      "realm": "NT",
      "centerLat": -6.71,
      "centerLng": -78.36,
      "radiusKm": 210
    },
    "60151.0": {
      "id": "60151.0",
      "name": "Pernambuco coastal forests",
      "biome": "1.0",
      "realm": "NT",
      "centerLat": -8.16,
      "centerLng": -35.8,
      "radiusKm": 50
    },
    "60202.0": {
      "id": "60202.0",
      "name": "Atlantic dry forests",
      "biome": "2.0",
      "realm": "NT",
      "centerLat": -15.56,
      "centerLng": -45.07,
      "radiusKm": 50
    },
    "51104.0": {
      "id": "51104.0",
      "name": "Arctic foothills tundra",
      "biome": "11.0",
      "realm": "NA",
      "centerLat": 67.02,
      "centerLng": -162.64,
      "radiusKm": 50
    },
    "50603.0": {
      "id": "50603.0",
      "name": "Cook Inlet taiga",
      "biome": "6.0",
      "realm": "NA",
      "centerLat": 60.43,
      "centerLng": -151.96,
      "radiusKm": 50
    },
    "40125.0": {
      "id": "40125.0",
      "name": "Maldives-Lakshadweep-Chagos Archipelago tropical moist forests",
      "biome": "1.0",
      "realm": "IM",
      "centerLat": -7.24,
      "centerLng": 72.42,
      "radiusKm": 50
    },
    "30130.0": {
      "id": "30130.0",
      "name": "Western Guinean lowland forests",
      "biome": "1.0",
      "realm": "AT",
      "centerLat": 6.94,
      "centerLng": -11.52,
      "radiusKm": 50
    },
    "30905.0": {
      "id": "30905.0",
      "name": "Saharan flooded grasslands",
      "biome": "9.0",
      "realm": "AT",
      "centerLat": 7.37,
      "centerLng": 30.73,
      "radiusKm": 432
    },
    "31007.0": {
      "id": "31007.0",
      "name": "Ethiopian montane grasslands and woodlands",
      "biome": "10.0",
      "realm": "AT",
      "centerLat": 4.12,
      "centerLng": 38.3,
      "radiusKm": 50
    },
    "80603.0": {
      "id": "80603.0",
      "name": "Kamchatka-Kurile meadows and sparse forests",
      "biome": "6.0",
      "realm": "PA",
      "centerLat": 46.99,
      "centerLng": 152.02,
      "radiusKm": 50
    },
    "60103.0": {
      "id": "60103.0",
      "name": "Bahia coastal forests",
      "biome": "1.0",
      "realm": "NT",
      "centerLat": -20.88,
      "centerLng": -41.3,
      "radiusKm": 50
    },
    "60212.0": {
      "id": "60212.0",
      "name": "Chiquitano dry forests",
      "biome": "2.0",
      "realm": "NT",
      "centerLat": -15.94,
      "centerLng": -60.42,
      "radiusKm": 568
    },
    "61002.0": {
      "id": "61002.0",
      "name": "Central Andean puna",
      "biome": "10.0",
      "realm": "NT",
      "centerLat": -27.17,
      "centerLng": -66.1,
      "radiusKm": 50
    },
    "60105.0": {
      "id": "60105.0",
      "name": "Bolivian Yungas",
      "biome": "1.0",
      "realm": "NT",
      "centerLat": -15.69,
      "centerLng": -66.43,
      "radiusKm": 424
    },
    "-9998.0": {
      "id": "-9998.0",
      "name": "Lake",
      "biome": "98.0",
      "realm": "AT",
      "centerLat": -11.94,
      "centerLng": 34.59,
      "radiusKm": 283
    },
    "61001.0": {
      "id": "61001.0",
      "name": "Central Andean dry puna",
      "biome": "10.0",
      "realm": "NT",
      "centerLat": -22.57,
      "centerLng": -65.26,
      "radiusKm": 50
    },
    "60708.0": {
      "id": "60708.0",
      "name": "Humid Chaco",
      "biome": "7.0",
      "realm": "NT",
      "centerLat": -26.07,
      "centerLng": -59.1,
      "radiusKm": 628
    },
    "60160.0": {
      "id": "60160.0",
      "name": "Serra do Mar coastal forests",
      "biome": "1.0",
      "realm": "NT",
      "centerLat": -27.61,
      "centerLng": -48.47,
      "radiusKm": 50
    },
    "61201.0": {
      "id": "61201.0",
      "name": "Chilean matorral",
      "biome": "12.0",
      "realm": "NT",
      "centerLat": -29.03,
      "centerLng": -71.58,
      "radiusKm": 50
    },
    "61010.0": {
      "id": "61010.0",
      "name": "High Monte",
      "biome": "10.0",
      "realm": "NT",
      "centerLat": -28.82,
      "centerLng": -67.64,
      "radiusKm": 514
    },
    "60101.0": {
      "id": "60101.0",
      "name": "Araucaria moist forests",
      "biome": "1.0",
      "realm": "NT",
      "centerLat": -29.28,
      "centerLng": -52.45,
      "radiusKm": 50
    },
    "61008.0": {
      "id": "61008.0",
      "name": "Southern Andean steppe",
      "biome": "10.0",
      "realm": "NT",
      "centerLat": -31.97,
      "centerLng": -69.18,
      "radiusKm": 72
    },
    "60908.0": {
      "id": "60908.0",
      "name": "Paran\u00e1 flooded savanna",
      "biome": "9.0",
      "realm": "NT",
      "centerLat": -29.85,
      "centerLng": -59.2,
      "radiusKm": 526
    },
    "60403.0": {
      "id": "60403.0",
      "name": "San F\u00e9lix-San Ambrosio Islands temperate forests",
      "biome": "4.0",
      "realm": "NT",
      "centerLat": -26.36,
      "centerLng": -79.9,
      "radiusKm": 50
    },
    "60909.0": {
      "id": "60909.0",
      "name": "Southern Cone Mesopotamian savanna",
      "biome": "9.0",
      "realm": "NT",
      "centerLat": -28.75,
      "centerLng": -56.51,
      "radiusKm": 208
    },
    "60710.0": {
      "id": "60710.0",
      "name": "Uruguayan savanna",
      "biome": "7.0",
      "realm": "NT",
      "centerLat": -32.01,
      "centerLng": -52.15,
      "radiusKm": 50
    },
    "60801.0": {
      "id": "60801.0",
      "name": "Espinal",
      "biome": "8.0",
      "realm": "NT",
      "centerLat": -40.48,
      "centerLng": -62.2,
      "radiusKm": 50
    },
    "60802.0": {
      "id": "60802.0",
      "name": "Low Monte",
      "biome": "8.0",
      "realm": "NT",
      "centerLat": -37.8,
      "centerLng": -66.53,
      "radiusKm": 820
    },
    "60803.0": {
      "id": "60803.0",
      "name": "Humid Pampas",
      "biome": "8.0",
      "realm": "NT",
      "centerLat": -32.68,
      "centerLng": -59.34,
      "radiusKm": 169
    },
    "60401.0": {
      "id": "60401.0",
      "name": "Juan Fern\u00e1ndez Islands temperate forests",
      "biome": "4.0",
      "realm": "NT",
      "centerLat": -33.74,
      "centerLng": -80.75,
      "radiusKm": 50
    },
    "81102.0": {
      "id": "81102.0",
      "name": "Bering tundra",
      "biome": "11.0",
      "realm": "PA",
      "centerLat": 63.67,
      "centerLng": 168.14,
      "radiusKm": 1385
    },
    "81105.0": {
      "id": "81105.0",
      "name": "Kamchatka Mountain tundra and forest tundra",
      "biome": "11.0",
      "realm": "PA",
      "centerLat": 55.07,
      "centerLng": 160.45,
      "radiusKm": 260
    },
    "80427.0": {
      "id": "80427.0",
      "name": "Nihonkai evergreen forests",
      "biome": "4.0",
      "realm": "PA",
      "centerLat": 36.24,
      "centerLng": 133.28,
      "radiusKm": 50
    },
    "50515.0": {
      "id": "50515.0",
      "name": "Great Basin montane forests",
      "biome": "5.0",
      "realm": "NA",
      "centerLat": 36.19,
      "centerLng": -117.05,
      "radiusKm": 50
    },
    "81008.0": {
      "id": "81008.0",
      "name": "Kopet Dag woodlands and forest steppe",
      "biome": "10.0",
      "realm": "PA",
      "centerLat": 39.8,
      "centerLng": 54.64,
      "radiusKm": 60
    },
    "80407.0": {
      "id": "80407.0",
      "name": "Caspian Hyrcanian mixed forests",
      "biome": "4.0",
      "realm": "PA",
      "centerLat": 38.34,
      "centerLng": 47.63,
      "radiusKm": 52
    },
    "40501.0": {
      "id": "40501.0",
      "name": "Eastern Himalayan subalpine conifer forests",
      "biome": "5.0",
      "realm": "IM",
      "centerLat": 27.06,
      "centerLng": 91.8,
      "radiusKm": 50
    },
    "50303.0": {
      "id": "50303.0",
      "name": "Sierra Madre Oriental pine-oak forests",
      "biome": "3.0",
      "realm": "NA",
      "centerLat": 20.66,
      "centerLng": -99.42,
      "radiusKm": 50
    },
    "40403.0": {
      "id": "40403.0",
      "name": "Western Himalayan broadleaf forests",
      "biome": "4.0",
      "realm": "IM",
      "centerLat": 28.38,
      "centerLng": 83.11,
      "radiusKm": 50
    },
    "50529.0": {
      "id": "50529.0",
      "name": "Southeastern conifer forests",
      "biome": "5.0",
      "realm": "NA",
      "centerLat": 26.44,
      "centerLng": -81.93,
      "radiusKm": 50
    },
    "40115.0": {
      "id": "40115.0",
      "name": "Himalayan subtropical broadleaf forests",
      "biome": "1.0",
      "realm": "IM",
      "centerLat": 26.94,
      "centerLng": 91.81,
      "radiusKm": 50
    },
    "81003.0": {
      "id": "81003.0",
      "name": "Eastern Himalayan alpine shrub and meadows",
      "biome": "10.0",
      "realm": "PA",
      "centerLat": 27.32,
      "centerLng": 90.35,
      "radiusKm": 50
    },
    "51101.0": {
      "id": "51101.0",
      "name": "Alaska-St. Elias Range tundra",
      "biome": "11.0",
      "realm": "NA",
      "centerLat": 59.38,
      "centerLng": -153.55,
      "radiusKm": 50
    },
    "81016.0": {
      "id": "81016.0",
      "name": "Sayan Alpine meadows and tundra",
      "biome": "10.0",
      "realm": "PA",
      "centerLat": 51.65,
      "centerLng": 100.87,
      "radiusKm": 300
    },
    "50608.0": {
      "id": "50608.0",
      "name": "Mid-Continental Canadian forests",
      "biome": "6.0",
      "realm": "NA",
      "centerLat": 51.37,
      "centerLng": -96.92,
      "radiusKm": 53
    },
    "81316.0": {
      "id": "81316.0",
      "name": "Great Lakes Basin desert steppe",
      "biome": "13.0",
      "realm": "PA",
      "centerLat": 48.51,
      "centerLng": 93.34,
      "radiusKm": 506
    },
    "80505.0": {
      "id": "80505.0",
      "name": "Da Hinggan-Dzhagdy Mountains conifer forests",
      "biome": "5.0",
      "realm": "PA",
      "centerLat": 50.44,
      "centerLng": 126.86,
      "radiusKm": 50
    },
    "80412.0": {
      "id": "80412.0",
      "name": "Central European mixed forests",
      "biome": "4.0",
      "realm": "PA",
      "centerLat": 44.79,
      "centerLng": 25.53,
      "radiusKm": 158
    },
    "10701.0": {
      "id": "10701.0",
      "name": "Arnhem Land tropical savanna",
      "biome": "7.0",
      "realm": "AA",
      "centerLat": -14.09,
      "centerLng": 129.51,
      "radiusKm": 50
    },
    "30105.0": {
      "id": "30105.0",
      "name": "Comoros forests",
      "biome": "1.0",
      "realm": "AT",
      "centerLat": -12.84,
      "centerLng": 45.25,
      "radiusKm": 50
    },
    "30202.0": {
      "id": "30202.0",
      "name": "Madagascar dry deciduous forests",
      "biome": "2.0",
      "realm": "AT",
      "centerLat": -19.62,
      "centerLng": 44.41,
      "radiusKm": 50
    },
    "30724.0": {
      "id": "30724.0",
      "name": "Western Zambezian grasslands",
      "biome": "7.0",
      "realm": "AT",
      "centerLat": -16.89,
      "centerLng": 22.94,
      "radiusKm": 81
    },
    "70105.0": {
      "id": "70105.0",
      "name": "Fiji tropical moist forests",
      "biome": "1.0",
      "realm": "OC",
      "centerLat": -20.66,
      "centerLng": -178.7,
      "radiusKm": 50
    },
    "31404.0": {
      "id": "31404.0",
      "name": "Madagascar mangroves",
      "biome": "14.0",
      "realm": "AT",
      "centerLat": -21.3,
      "centerLng": 43.57,
      "radiusKm": 50
    },
    "70115.0": {
      "id": "70115.0",
      "name": "Tuamotu tropical moist forests",
      "biome": "1.0",
      "realm": "OC",
      "centerLat": -25.07,
      "centerLng": -130.11,
      "radiusKm": 50
    },
    "70201.0": {
      "id": "70201.0",
      "name": "Fiji tropical dry forests",
      "biome": "2.0",
      "realm": "OC",
      "centerLat": -17.75,
      "centerLng": 177.81,
      "radiusKm": 78
    },
    "51301.0": {
      "id": "51301.0",
      "name": "Baja California desert",
      "biome": "13.0",
      "realm": "NA",
      "centerLat": 24.42,
      "centerLng": -111.85,
      "radiusKm": 50
    },
    "81332.0": {
      "id": "81332.0",
      "name": "West Saharan montane xeric woodlands",
      "biome": "13.0",
      "realm": "PA",
      "centerLat": 16.18,
      "centerLng": 11.38,
      "radiusKm": 50
    },
    "70109.0": {
      "id": "70109.0",
      "name": "Ogasawara subtropical moist forests",
      "biome": "1.0",
      "realm": "OC",
      "centerLat": 24.24,
      "centerLng": 141.47,
      "radiusKm": 50
    },
    "81333.0": {
      "id": "81333.0",
      "name": "Red Sea coastal desert",
      "biome": "13.0",
      "realm": "PA",
      "centerLat": 20.8,
      "centerLng": 37.27,
      "radiusKm": 50
    },
    "40303.0": {
      "id": "40303.0",
      "name": "Northeast India-Myanmar pine forests",
      "biome": "3.0",
      "realm": "IM",
      "centerLat": 24.08,
      "centerLng": 93.65,
      "radiusKm": 50
    },
    "40149.0": {
      "id": "40149.0",
      "name": "South China-Vietnam subtropical evergreen forests",
      "biome": "1.0",
      "realm": "IM",
      "centerLat": 6.83,
      "centerLng": 117.27,
      "radiusKm": 50
    },
    "40170.0": {
      "id": "40170.0",
      "name": "Nansei Islands subtropical evergreen forests",
      "biome": "1.0",
      "realm": "IM",
      "centerLat": 24.22,
      "centerLng": 124.01,
      "radiusKm": 50
    },
    "41303.0": {
      "id": "41303.0",
      "name": "Northwestern thorn scrub forests",
      "biome": "13.0",
      "realm": "IM",
      "centerLat": 23.43,
      "centerLng": 68.44,
      "radiusKm": 50
    },
    "70703.0": {
      "id": "70703.0",
      "name": "Northwestern Hawaii scrub",
      "biome": "7.0",
      "realm": "OC",
      "centerLat": 23.58,
      "centerLng": -164.7,
      "radiusKm": 50
    },
    "31303.0": {
      "id": "31303.0",
      "name": "East Saharan montane xeric woodlands",
      "biome": "13.0",
      "realm": "AT",
      "centerLat": 13.03,
      "centerLng": 24.41,
      "radiusKm": 50
    },
    "40123.0": {
      "id": "40123.0",
      "name": "Luzon rain forests",
      "biome": "1.0",
      "realm": "IM",
      "centerLat": 12.43,
      "centerLng": 124.17,
      "radiusKm": 50
    },
    "40148.0": {
      "id": "40148.0",
      "name": "South China Sea Islands",
      "biome": "1.0",
      "realm": "IM",
      "centerLat": 10.19,
      "centerLng": 114.36,
      "radiusKm": 50
    },
    "41404.0": {
      "id": "41404.0",
      "name": "Myanmar Coast mangroves",
      "biome": "14.0",
      "realm": "IM",
      "centerLat": 4.77,
      "centerLng": 100.56,
      "radiusKm": 50
    },
    "30904.0": {
      "id": "30904.0",
      "name": "Lake Chad flooded savanna",
      "biome": "9.0",
      "realm": "AT",
      "centerLat": 11.33,
      "centerLng": 8.47,
      "radiusKm": 50
    },
    "40209.0": {
      "id": "40209.0",
      "name": "South Deccan Plateau dry deciduous forests",
      "biome": "2.0",
      "realm": "IM",
      "centerLat": 11.46,
      "centerLng": 77.52,
      "radiusKm": 382
    },
    "50612.0": {
      "id": "50612.0",
      "name": "Northern Canadian Shield taiga",
      "biome": "6.0",
      "realm": "NA",
      "centerLat": 63.08,
      "centerLng": -116.11,
      "radiusKm": 50
    },
    "80419.0": {
      "id": "80419.0",
      "name": "East European forest steppe",
      "biome": "4.0",
      "realm": "PA",
      "centerLat": 43.75,
      "centerLng": 28.12,
      "radiusKm": 70
    },
    "50601.0": {
      "id": "50601.0",
      "name": "Alaska Peninsula montane taiga",
      "biome": "6.0",
      "realm": "NA",
      "centerLat": 54.43,
      "centerLng": -162.69,
      "radiusKm": 50
    },
    "50521.0": {
      "id": "50521.0",
      "name": "Northern transitional alpine forests",
      "biome": "5.0",
      "realm": "NA",
      "centerLat": 54.55,
      "centerLng": -127.41,
      "radiusKm": 75
    },
    "81204.0": {
      "id": "81204.0",
      "name": "Corsican montane broadleaf and mixed forests",
      "biome": "12.0",
      "realm": "PA",
      "centerLat": 42.05,
      "centerLng": 9.0,
      "radiusKm": 68
    },
    "80411.0": {
      "id": "80411.0",
      "name": "Central China loess plateau mixed forests",
      "biome": "4.0",
      "realm": "PA",
      "centerLat": 38.96,
      "centerLng": 113.3,
      "radiusKm": 1156
    },
    "81217.0": {
      "id": "81217.0",
      "name": "Pindus Mountains mixed forests",
      "biome": "12.0",
      "realm": "PA",
      "centerLat": 36.99,
      "centerLng": 22.34,
      "radiusKm": 50
    },
    "81019.0": {
      "id": "81019.0",
      "name": "Tian Shan montane steppe and meadows",
      "biome": "10.0",
      "realm": "PA",
      "centerLat": 43.0,
      "centerLng": 77.1,
      "radiusKm": 182
    },
    "80428.0": {
      "id": "80428.0",
      "name": "Nihonkai montane deciduous forests",
      "biome": "4.0",
      "realm": "PA",
      "centerLat": 34.38,
      "centerLng": 131.74,
      "radiusKm": 50
    },
    "81308.0": {
      "id": "81308.0",
      "name": "Caspian lowland desert",
      "biome": "13.0",
      "realm": "PA",
      "centerLat": 38.43,
      "centerLng": 54.03,
      "radiusKm": 205
    },
    "50519.0": {
      "id": "50519.0",
      "name": "Northern California coastal forests",
      "biome": "5.0",
      "realm": "NA",
      "centerLat": 37.28,
      "centerLng": -122.1,
      "radiusKm": 59
    },
    "50504.0": {
      "id": "50504.0",
      "name": "Atlantic coastal pine barrens",
      "biome": "5.0",
      "realm": "NA",
      "centerLat": 39.48,
      "centerLng": -75.35,
      "radiusKm": 50
    },
    "80422.0": {
      "id": "80422.0",
      "name": "Euxine-Colchic broadleaf forests",
      "biome": "4.0",
      "realm": "PA",
      "centerLat": 40.3,
      "centerLng": 37.17,
      "radiusKm": 132
    },
    "81208.0": {
      "id": "81208.0",
      "name": "Iberian conifer forests",
      "biome": "12.0",
      "realm": "PA",
      "centerLat": 37.09,
      "centerLng": -3.06,
      "radiusKm": 61
    },
    "80405.0": {
      "id": "80405.0",
      "name": "Baltic mixed forests",
      "biome": "4.0",
      "realm": "PA",
      "centerLat": 53.85,
      "centerLng": 14.34,
      "radiusKm": 50
    },
    "60132.0": {
      "id": "60132.0",
      "name": "Japur\u00e1-Solimoes-Negro moist forests",
      "biome": "1.0",
      "realm": "NT",
      "centerLat": -3.95,
      "centerLng": -62.83,
      "radiusKm": 50
    },
    "60163.0": {
      "id": "60163.0",
      "name": "Solim\u00f5es-Japur\u00e1 moist forests",
      "biome": "1.0",
      "realm": "NT",
      "centerLat": -3.19,
      "centerLng": -68.94,
      "radiusKm": 57
    },
    "60225.0": {
      "id": "60225.0",
      "name": "Pat\u00eda Valley dry forests",
      "biome": "2.0",
      "realm": "NT",
      "centerLat": 1.83,
      "centerLng": -77.23,
      "radiusKm": 77
    },
    "81109.0": {
      "id": "81109.0",
      "name": "Novosibirsk Islands arctic desert",
      "biome": "11.0",
      "realm": "PA",
      "centerLat": 73.55,
      "centerLng": 141.71,
      "radiusKm": 212
    },
    "80605.0": {
      "id": "80605.0",
      "name": "Northeast Siberian taiga",
      "biome": "6.0",
      "realm": "PA",
      "centerLat": 59.08,
      "centerLng": 150.57,
      "radiusKm": 50
    },
    "80504.0": {
      "id": "80504.0",
      "name": "Carpathian montane forests",
      "biome": "5.0",
      "realm": "PA",
      "centerLat": 46.59,
      "centerLng": 23.04,
      "radiusKm": 80
    },
    "81018.0": {
      "id": "81018.0",
      "name": "Sulaiman Range alpine meadows",
      "biome": "10.0",
      "realm": "PA",
      "centerLat": 28.81,
      "centerLng": 66.0,
      "radiusKm": 50
    },
    "40401.0": {
      "id": "40401.0",
      "name": "Eastern Himalayan broadleaf forests",
      "biome": "4.0",
      "realm": "IM",
      "centerLat": 27.03,
      "centerLng": 90.43,
      "radiusKm": 59
    },
    "50513.0": {
      "id": "50513.0",
      "name": "Florida sand pine scrub",
      "biome": "5.0",
      "realm": "NA",
      "centerLat": 27.09,
      "centerLng": -80.51,
      "radiusKm": 50
    },
    "40502.0": {
      "id": "40502.0",
      "name": "Western Himalayan subalpine conifer forests",
      "biome": "5.0",
      "realm": "IM",
      "centerLat": 29.16,
      "centerLng": 80.7,
      "radiusKm": 50
    },
    "41406.0": {
      "id": "41406.0",
      "name": "Sundarbans mangroves",
      "biome": "14.0",
      "realm": "IM",
      "centerLat": 21.55,
      "centerLng": 88.18,
      "radiusKm": 50
    },
    "50402.0": {
      "id": "50402.0",
      "name": "Appalachian mixed mesophytic forests",
      "biome": "4.0",
      "realm": "NA",
      "centerLat": 40.15,
      "centerLng": -78.13,
      "radiusKm": 50
    },
    "80442.0": {
      "id": "80442.0",
      "name": "Tarim Basin deciduous forests and steppe",
      "biome": "4.0",
      "realm": "PA",
      "centerLat": 37.87,
      "centerLng": 83.47,
      "radiusKm": 106
    },
    "50406.0": {
      "id": "50406.0",
      "name": "Eastern forest-boreal transition",
      "biome": "4.0",
      "realm": "NA",
      "centerLat": 43.97,
      "centerLng": -74.64,
      "radiusKm": 181
    },
    "50510.0": {
      "id": "50510.0",
      "name": "Central Pacific coastal forests",
      "biome": "5.0",
      "realm": "NA",
      "centerLat": 48.03,
      "centerLng": -123.19,
      "radiusKm": 50
    },
    "50410.0": {
      "id": "50410.0",
      "name": "New England-Acadian forests",
      "biome": "4.0",
      "realm": "NA",
      "centerLat": 40.32,
      "centerLng": -76.14,
      "radiusKm": 50
    },
    "80438.0": {
      "id": "80438.0",
      "name": "South Sakhalin-Kurile mixed forests",
      "biome": "4.0",
      "realm": "PA",
      "centerLat": 44.95,
      "centerLng": 147.87,
      "radiusKm": 129
    },
    "50414.0": {
      "id": "50414.0",
      "name": "Southern Great Lakes forests",
      "biome": "4.0",
      "realm": "NA",
      "centerLat": 41.78,
      "centerLng": -82.66,
      "radiusKm": 50
    },
    "81312.0": {
      "id": "81312.0",
      "name": "Central Asian southern desert",
      "biome": "13.0",
      "realm": "PA",
      "centerLat": 39.58,
      "centerLng": 58.78,
      "radiusKm": 825
    },
    "50407.0": {
      "id": "50407.0",
      "name": "Eastern Great Lakes lowland forests",
      "biome": "4.0",
      "realm": "NA",
      "centerLat": 44.14,
      "centerLng": -76.71,
      "radiusKm": 50
    },
    "51202.0": {
      "id": "51202.0",
      "name": "California interior chaparral and woodlands",
      "biome": "12.0",
      "realm": "NA",
      "centerLat": 37.64,
      "centerLng": -120.97,
      "radiusKm": 441
    },
    "50517.0": {
      "id": "50517.0",
      "name": "Middle Atlantic coastal forests",
      "biome": "5.0",
      "realm": "NA",
      "centerLat": 30.97,
      "centerLng": -81.57,
      "radiusKm": 50
    },
    "80507.0": {
      "id": "80507.0",
      "name": "Elburz Range forest steppe",
      "biome": "5.0",
      "realm": "PA",
      "centerLat": 38.31,
      "centerLng": 47.08,
      "radiusKm": 161
    },
    "80803.0": {
      "id": "80803.0",
      "name": "Central Anatolian steppe",
      "biome": "8.0",
      "realm": "PA",
      "centerLat": 39.63,
      "centerLng": 33.89,
      "radiusKm": 50
    },
    "50403.0": {
      "id": "50403.0",
      "name": "Appalachian-Blue Ridge forests",
      "biome": "4.0",
      "realm": "NA",
      "centerLat": 37.59,
      "centerLng": -79.16,
      "radiusKm": 50
    },
    "80518.0": {
      "id": "80518.0",
      "name": "Qionglai-Minshan conifer forests",
      "biome": "5.0",
      "realm": "PA",
      "centerLat": 30.66,
      "centerLng": 102.78,
      "radiusKm": 409
    },
    "81010.0": {
      "id": "81010.0",
      "name": "Mediterranean High Atlas juniper steppe",
      "biome": "10.0",
      "realm": "PA",
      "centerLat": 31.15,
      "centerLng": -7.73,
      "radiusKm": 50
    },
    "81214.0": {
      "id": "81214.0",
      "name": "Mediterranean woodlands and forests",
      "biome": "12.0",
      "realm": "PA",
      "centerLat": 31.16,
      "centerLng": -5.86,
      "radiusKm": 53
    },
    "81320.0": {
      "id": "81320.0",
      "name": "Mesopotamian shrub desert",
      "biome": "13.0",
      "realm": "PA",
      "centerLat": 30.96,
      "centerLng": 34.8,
      "radiusKm": 85
    },
    "81012.0": {
      "id": "81012.0",
      "name": "Northwestern Himalayan alpine shrub and meadows",
      "biome": "10.0",
      "realm": "PA",
      "centerLat": 35.61,
      "centerLng": 72.28,
      "radiusKm": 138
    },
    "80439.0": {
      "id": "80439.0",
      "name": "Southern Korea evergreen forests",
      "biome": "4.0",
      "realm": "PA",
      "centerLat": 34.33,
      "centerLng": 126.71,
      "radiusKm": 50
    },
    "51201.0": {
      "id": "51201.0",
      "name": "California coastal sage and chaparral",
      "biome": "12.0",
      "realm": "NA",
      "centerLat": 28.2,
      "centerLng": -115.25,
      "radiusKm": 50
    },
    "50405.0": {
      "id": "50405.0",
      "name": "East Central Texas forests",
      "biome": "4.0",
      "realm": "NA",
      "centerLat": 30.77,
      "centerLng": -96.89,
      "radiusKm": 362
    },
    "81328.0": {
      "id": "81328.0",
      "name": "South Iran Nubo-Sindian desert and semi-desert",
      "biome": "13.0",
      "realm": "PA",
      "centerLat": 26.25,
      "centerLng": 62.98,
      "radiusKm": 51
    },
    "80440.0": {
      "id": "80440.0",
      "name": "Taiheiyo evergreen forests",
      "biome": "4.0",
      "realm": "PA",
      "centerLat": 32.44,
      "centerLng": 130.34,
      "radiusKm": 50
    },
    "80441.0": {
      "id": "80441.0",
      "name": "Taiheiyo montane deciduous forests",
      "biome": "4.0",
      "realm": "PA",
      "centerLat": 32.41,
      "centerLng": 131.0,
      "radiusKm": 50
    },
    "51303.0": {
      "id": "51303.0",
      "name": "Chihuahuan desert",
      "biome": "13.0",
      "realm": "NA",
      "centerLat": 26.09,
      "centerLng": -105.28,
      "radiusKm": 50
    },
    "50806.0": {
      "id": "50806.0",
      "name": "Edwards Plateau savanna",
      "biome": "8.0",
      "realm": "NA",
      "centerLat": 30.49,
      "centerLng": -99.22,
      "radiusKm": 255
    },
    "50701.0": {
      "id": "50701.0",
      "name": "Western Gulf coastal grasslands",
      "biome": "7.0",
      "realm": "NA",
      "centerLat": 24.32,
      "centerLng": -97.77,
      "radiusKm": 50
    },
    "81021.0": {
      "id": "81021.0",
      "name": "Western Himalayan alpine shrub and Meadows",
      "biome": "10.0",
      "realm": "PA",
      "centerLat": 30.47,
      "centerLng": 81.02,
      "radiusKm": 402
    },
    "40701.0": {
      "id": "40701.0",
      "name": "Terai-Duar savanna and grasslands",
      "biome": "7.0",
      "realm": "IM",
      "centerLat": 26.86,
      "centerLng": 87.28,
      "radiusKm": 318
    },
    "80905.0": {
      "id": "80905.0",
      "name": "Saharan halophytics",
      "biome": "9.0",
      "realm": "PA",
      "centerLat": 18.7,
      "centerLng": -15.8,
      "radiusKm": 56
    },
    "81212.0": {
      "id": "81212.0",
      "name": "Mediterranean acacia-argania dry woodlands and succulent thickets",
      "biome": "12.0",
      "realm": "PA",
      "centerLat": 28.4,
      "centerLng": -14.16,
      "radiusKm": 54
    },
    "40301.0": {
      "id": "40301.0",
      "name": "Himalayan subtropical pine forests",
      "biome": "3.0",
      "realm": "IM",
      "centerLat": 26.84,
      "centerLng": 88.24,
      "radiusKm": 50
    },
    "51108.0": {
      "id": "51108.0",
      "name": "Brooks-British Range tundra",
      "biome": "11.0",
      "realm": "NA",
      "centerLat": 67.77,
      "centerLng": -149.43,
      "radiusKm": 1616
    },
    "50614.0": {
      "id": "50614.0",
      "name": "Northwest Territories taiga",
      "biome": "6.0",
      "realm": "NA",
      "centerLat": 65.96,
      "centerLng": -118.0,
      "radiusKm": 50
    },
    "50607.0": {
      "id": "50607.0",
      "name": "Interior Alaska-Yukon lowland taiga",
      "biome": "6.0",
      "realm": "NA",
      "centerLat": 62.08,
      "centerLng": -163.08,
      "radiusKm": 50
    },
    "80611.0": {
      "id": "80611.0",
      "name": "West Siberian taiga",
      "biome": "6.0",
      "realm": "PA",
      "centerLat": 61.35,
      "centerLng": 76.22,
      "radiusKm": 2000
    },
    "80610.0": {
      "id": "80610.0",
      "name": "Ural montane forests and tundra",
      "biome": "6.0",
      "realm": "PA",
      "centerLat": 58.8,
      "centerLng": 58.13,
      "radiusKm": 900
    },
    "40106.0": {
      "id": "40106.0",
      "name": "Cardamom Mountains rain forests",
      "biome": "1.0",
      "realm": "IM",
      "centerLat": 10.3,
      "centerLng": 103.14,
      "radiusKm": 50
    },
    "41301.0": {
      "id": "41301.0",
      "name": "Deccan thorn scrub forests",
      "biome": "13.0",
      "realm": "IM",
      "centerLat": 9.03,
      "centerLng": 79.81,
      "radiusKm": 50
    },
    "80606.0": {
      "id": "80606.0",
      "name": "Okhotsk-Manchurian taiga",
      "biome": "6.0",
      "realm": "PA",
      "centerLat": 51.99,
      "centerLng": 136.2,
      "radiusKm": 934
    },
    "51116.0": {
      "id": "51116.0",
      "name": "Ogilvie-MacKenzie alpine tundra",
      "biome": "11.0",
      "realm": "NA",
      "centerLat": 63.99,
      "centerLng": -134.35,
      "radiusKm": 1057
    },
    "50610.0": {
      "id": "50610.0",
      "name": "Muskwa-Slave Lake forests",
      "biome": "6.0",
      "realm": "NA",
      "centerLat": 61.75,
      "centerLng": -121.49,
      "radiusKm": 1078
    },
    "50616.0": {
      "id": "50616.0",
      "name": "Southern Hudson Bay taiga",
      "biome": "6.0",
      "realm": "NA",
      "centerLat": 51.76,
      "centerLng": -79.24,
      "radiusKm": 50
    },
    "80426.0": {
      "id": "80426.0",
      "name": "Manchurian mixed forests",
      "biome": "4.0",
      "realm": "PA",
      "centerLat": 42.24,
      "centerLng": 128.39,
      "radiusKm": 939
    },
    "80502.0": {
      "id": "80502.0",
      "name": "Altai montane forest and forest steppe",
      "biome": "5.0",
      "realm": "PA",
      "centerLat": 44.83,
      "centerLng": 95.19,
      "radiusKm": 70
    },
    "80418.0": {
      "id": "80418.0",
      "name": "Dinaric Mountains mixed forests",
      "biome": "4.0",
      "realm": "PA",
      "centerLat": 43.29,
      "centerLng": 17.13,
      "radiusKm": 50
    },
    "81314.0": {
      "id": "81314.0",
      "name": "Eastern Gobi desert steppe",
      "biome": "13.0",
      "realm": "PA",
      "centerLat": 43.17,
      "centerLng": 108.52,
      "radiusKm": 717
    },
    "80432.0": {
      "id": "80432.0",
      "name": "Po Basin mixed forests",
      "biome": "4.0",
      "realm": "PA",
      "centerLat": 45.71,
      "centerLng": 13.28,
      "radiusKm": 50
    },
    "80814.0": {
      "id": "80814.0",
      "name": "Pontic steppe",
      "biome": "8.0",
      "realm": "PA",
      "centerLat": 44.67,
      "centerLng": 28.9,
      "radiusKm": 50
    },
    "80907.0": {
      "id": "80907.0",
      "name": "Suiphun-Khanka meadows and forest meadows",
      "biome": "9.0",
      "realm": "PA",
      "centerLat": 44.81,
      "centerLng": 132.47,
      "radiusKm": 263
    },
    "50505.0": {
      "id": "50505.0",
      "name": "Blue Mountains forests",
      "biome": "5.0",
      "realm": "NA",
      "centerLat": 44.9,
      "centerLng": -121.2,
      "radiusKm": 50
    },
    "50416.0": {
      "id": "50416.0",
      "name": "Western Great Lakes forests",
      "biome": "4.0",
      "realm": "NA",
      "centerLat": 44.73,
      "centerLng": -84.73,
      "radiusKm": 200
    },
    "81311.0": {
      "id": "81311.0",
      "name": "Central Asian riparian woodlands",
      "biome": "13.0",
      "realm": "PA",
      "centerLat": 44.51,
      "centerLng": 70.63,
      "radiusKm": 337
    },
    "50805.0": {
      "id": "50805.0",
      "name": "Central tall grasslands",
      "biome": "8.0",
      "realm": "NA",
      "centerLat": 42.67,
      "centerLng": -93.97,
      "radiusKm": 578
    },
    "50201.0": {
      "id": "50201.0",
      "name": "Sonoran-Sinaloan transition subtropical dry forest",
      "biome": "2.0",
      "realm": "NA",
      "centerLat": 28.18,
      "centerLng": -110.39,
      "radiusKm": 50
    },
    "51306.0": {
      "id": "51306.0",
      "name": "Gulf of California xeric scrub",
      "biome": "13.0",
      "realm": "NA",
      "centerLat": 24.98,
      "centerLng": -110.63,
      "radiusKm": 50
    },
    "10204.0": {
      "id": "10204.0",
      "name": "Timor and Wetar deciduous forests",
      "biome": "2.0",
      "realm": "AA",
      "centerLat": -10.98,
      "centerLng": 122.85,
      "radiusKm": 50
    },
    "10110.0": {
      "id": "10110.0",
      "name": "Louisiade Archipelago rain forests",
      "biome": "1.0",
      "realm": "AA",
      "centerLat": -11.23,
      "centerLng": 153.17,
      "radiusKm": 50
    },
    "10120.0": {
      "id": "10120.0",
      "name": "Southeastern Papuan rain forests",
      "biome": "1.0",
      "realm": "AA",
      "centerLat": -7.41,
      "centerLng": 147.25,
      "radiusKm": 50
    },
    "30907.0": {
      "id": "30907.0",
      "name": "Zambezian flooded grasslands",
      "biome": "9.0",
      "realm": "AT",
      "centerLat": -19.13,
      "centerLng": 22.67,
      "radiusKm": 194
    },
    "10126.0": {
      "id": "10126.0",
      "name": "Vanuatu rain forests",
      "biome": "1.0",
      "realm": "AA",
      "centerLat": -19.54,
      "centerLng": 170.22,
      "radiusKm": 50
    },
    "10703.0": {
      "id": "10703.0",
      "name": "Cape York Peninsula tropical savanna",
      "biome": "7.0",
      "realm": "AA",
      "centerLat": -10.94,
      "centerLng": 142.68,
      "radiusKm": 50
    },
    "30128.0": {
      "id": "30128.0",
      "name": "Southern Zanzibar-Inhambane coastal forest mosaic",
      "biome": "1.0",
      "realm": "AT",
      "centerLat": -23.85,
      "centerLng": 35.44,
      "radiusKm": 50
    },
    "31015.0": {
      "id": "31015.0",
      "name": "Southern Rift montane forest-grassland mosaic",
      "biome": "10.0",
      "realm": "AT",
      "centerLat": -15.17,
      "centerLng": 34.54,
      "radiusKm": 50
    },
    "80503.0": {
      "id": "80503.0",
      "name": "Caledon conifer forests",
      "biome": "5.0",
      "realm": "PA",
      "centerLat": 57.29,
      "centerLng": -3.96,
      "radiusKm": 209
    },
    "80609.0": {
      "id": "80609.0",
      "name": "Trans-Baikal conifer forests",
      "biome": "6.0",
      "realm": "PA",
      "centerLat": 51.72,
      "centerLng": 109.11,
      "radiusKm": 726
    },
    "50408.0": {
      "id": "50408.0",
      "name": "Gulf of St. Lawrence lowland forests",
      "biome": "4.0",
      "realm": "NA",
      "centerLat": 44.64,
      "centerLng": -65.63,
      "radiusKm": 50
    },
    "81310.0": {
      "id": "81310.0",
      "name": "Central Asian northern desert",
      "biome": "13.0",
      "realm": "PA",
      "centerLat": 44.2,
      "centerLng": 58.86,
      "radiusKm": 50
    },
    "80903.0": {
      "id": "80903.0",
      "name": "Nenjiang River grassland",
      "biome": "9.0",
      "realm": "PA",
      "centerLat": 45.02,
      "centerLng": 124.0,
      "radiusKm": 50
    },
    "50415.0": {
      "id": "50415.0",
      "name": "Upper Midwest forest-savanna transition",
      "biome": "4.0",
      "realm": "NA",
      "centerLat": 45.02,
      "centerLng": -86.12,
      "radiusKm": 50
    },
    "51309.0": {
      "id": "51309.0",
      "name": "Snake-Columbia shrub steppe",
      "biome": "13.0",
      "realm": "NA",
      "centerLat": 42.7,
      "centerLng": -116.25,
      "radiusKm": 655
    },
    "80430.0": {
      "id": "80430.0",
      "name": "Northeast China Plain deciduous forests",
      "biome": "4.0",
      "realm": "PA",
      "centerLat": 42.28,
      "centerLng": 118.84,
      "radiusKm": 128
    },
    "80902.0": {
      "id": "80902.0",
      "name": "Bohai Sea saline meadow",
      "biome": "9.0",
      "realm": "PA",
      "centerLat": 37.86,
      "centerLng": 118.65,
      "radiusKm": 169
    },
    "81216.0": {
      "id": "81216.0",
      "name": "Northwest Iberian montane forests",
      "biome": "12.0",
      "realm": "PA",
      "centerLat": 39.52,
      "centerLng": -5.4,
      "radiusKm": 50
    },
    "70204.0": {
      "id": "70204.0",
      "name": "Yap tropical dry forests",
      "biome": "2.0",
      "realm": "OC",
      "centerLat": 9.76,
      "centerLng": 140.52,
      "radiusKm": 50
    },
    "50617.0": {
      "id": "50617.0",
      "name": "Yukon Interior dry forests",
      "biome": "6.0",
      "realm": "NA",
      "centerLat": 61.3,
      "centerLng": -135.05,
      "radiusKm": 490
    },
    "50604.0": {
      "id": "50604.0",
      "name": "Copper Plateau taiga",
      "biome": "6.0",
      "realm": "NA",
      "centerLat": 61.94,
      "centerLng": -144.78,
      "radiusKm": 306
    },
    "50613.0": {
      "id": "50613.0",
      "name": "Northern Cordillera forests",
      "biome": "6.0",
      "realm": "NA",
      "centerLat": 59.55,
      "centerLng": -130.42,
      "radiusKm": 913
    },
    "80807.0": {
      "id": "80807.0",
      "name": "Faroe Islands boreal grasslands",
      "biome": "8.0",
      "realm": "PA",
      "centerLat": 61.52,
      "centerLng": -6.83,
      "radiusKm": 50
    },
    "50810.0": {
      "id": "50810.0",
      "name": "Northern mixed grasslands",
      "biome": "8.0",
      "realm": "NA",
      "centerLat": 49.63,
      "centerLng": -109.73,
      "radiusKm": 136
    },
    "80421.0": {
      "id": "80421.0",
      "name": "English Lowlands beech forests",
      "biome": "4.0",
      "realm": "PA",
      "centerLat": 50.67,
      "centerLng": -1.29,
      "radiusKm": 50
    },
    "81301.0": {
      "id": "81301.0",
      "name": "Afghan Mountains semi-desert",
      "biome": "13.0",
      "realm": "PA",
      "centerLat": 34.56,
      "centerLng": 65.03,
      "radiusKm": 132
    },
    "81004.0": {
      "id": "81004.0",
      "name": "Ghorat-Hazarajat alpine meadow",
      "biome": "10.0",
      "realm": "PA",
      "centerLat": 32.6,
      "centerLng": 66.3,
      "radiusKm": 50
    },
    "81206.0": {
      "id": "81206.0",
      "name": "Cyprus Mediterranean forests",
      "biome": "12.0",
      "realm": "PA",
      "centerLat": 35.13,
      "centerLng": 33.44,
      "radiusKm": 143
    },
    "81309.0": {
      "id": "81309.0",
      "name": "Central Afghan Mountains xeric woodlands",
      "biome": "13.0",
      "realm": "PA",
      "centerLat": 31.39,
      "centerLng": 66.22,
      "radiusKm": 50
    },
    "81213.0": {
      "id": "81213.0",
      "name": "Mediterranean dry woodlands and steppe",
      "biome": "12.0",
      "realm": "PA",
      "centerLat": 31.17,
      "centerLng": 30.04,
      "radiusKm": 112
    },
    "81002.0": {
      "id": "81002.0",
      "name": "Central Tibetan Plateau alpine steppe",
      "biome": "10.0",
      "realm": "PA",
      "centerLat": 30.75,
      "centerLng": 82.06,
      "radiusKm": 50
    },
    "80425.0": {
      "id": "80425.0",
      "name": "Madeira evergreen forests",
      "biome": "4.0",
      "realm": "PA",
      "centerLat": 32.44,
      "centerLng": -16.48,
      "radiusKm": 50
    },
    "80607.0": {
      "id": "80607.0",
      "name": "Sakhalin Island taiga",
      "biome": "6.0",
      "realm": "PA",
      "centerLat": 50.25,
      "centerLng": 143.22,
      "radiusKm": 499
    },
    "80817.0": {
      "id": "80817.0",
      "name": "South Siberian forest steppe",
      "biome": "8.0",
      "realm": "PA",
      "centerLat": 54.28,
      "centerLng": 101.85,
      "radiusKm": 57
    },
    "80519.0": {
      "id": "80519.0",
      "name": "Sayan montane conifer forests",
      "biome": "5.0",
      "realm": "PA",
      "centerLat": 52.79,
      "centerLng": 101.66,
      "radiusKm": 79
    },
    "40101.0": {
      "id": "40101.0",
      "name": "Andaman Islands rain forests",
      "biome": "1.0",
      "realm": "IM",
      "centerLat": 10.7,
      "centerLng": 92.47,
      "radiusKm": 50
    },
    "31010.0": {
      "id": "31010.0",
      "name": "Jos Plateau forest-grassland mosaic",
      "biome": "10.0",
      "realm": "AT",
      "centerLat": 9.84,
      "centerLng": 9.03,
      "radiusKm": 112
    },
    "40211.0": {
      "id": "40211.0",
      "name": "Southern Vietnam lowland dry forests",
      "biome": "2.0",
      "realm": "IM",
      "centerLat": 8.67,
      "centerLng": 106.68,
      "radiusKm": 50
    },
    "80813.0": {
      "id": "80813.0",
      "name": "Mongolian-Manchurian grassland",
      "biome": "8.0",
      "realm": "PA",
      "centerLat": 45.15,
      "centerLng": 114.59,
      "radiusKm": 1577
    },
    "80815.0": {
      "id": "80815.0",
      "name": "Sayan Intermontane steppe",
      "biome": "8.0",
      "realm": "PA",
      "centerLat": 51.54,
      "centerLng": 93.01,
      "radiusKm": 318
    },
    "80805.0": {
      "id": "80805.0",
      "name": "Eastern Anatolian montane steppe",
      "biome": "8.0",
      "realm": "PA",
      "centerLat": 37.39,
      "centerLng": 45.52,
      "radiusKm": 50
    },
    "50609.0": {
      "id": "50609.0",
      "name": "Midwestern Canadian Shield forests",
      "biome": "6.0",
      "realm": "NA",
      "centerLat": 54.61,
      "centerLng": -99.97,
      "radiusKm": 1356
    },
    "80444.0": {
      "id": "80444.0",
      "name": "Western Siberian hemiboreal forests",
      "biome": "4.0",
      "realm": "PA",
      "centerLat": 54.88,
      "centerLng": 76.55,
      "radiusKm": 1742
    },
    "80604.0": {
      "id": "80604.0",
      "name": "Kamchatka-Kurile taiga",
      "biome": "6.0",
      "realm": "PA",
      "centerLat": 56.1,
      "centerLng": 160.41,
      "radiusKm": 212
    },
    "50509.0": {
      "id": "50509.0",
      "name": "Central British Columbia Mountain forests",
      "biome": "5.0",
      "realm": "NA",
      "centerLat": 55.47,
      "centerLng": -124.58,
      "radiusKm": 538
    },
    "80809.0": {
      "id": "80809.0",
      "name": "Kazakh forest steppe",
      "biome": "8.0",
      "realm": "PA",
      "centerLat": 53.25,
      "centerLng": 72.73,
      "radiusKm": 1709
    },
    "50514.0": {
      "id": "50514.0",
      "name": "Fraser Plateau and Basin complex",
      "biome": "5.0",
      "realm": "NA",
      "centerLat": 53.39,
      "centerLng": -124.12,
      "radiusKm": 480
    },
    "80810.0": {
      "id": "80810.0",
      "name": "Kazakh steppe",
      "biome": "8.0",
      "realm": "PA",
      "centerLat": 51.61,
      "centerLng": 67.47,
      "radiusKm": 1859
    },
    "50501.0": {
      "id": "50501.0",
      "name": "Alberta Mountain forests",
      "biome": "5.0",
      "realm": "NA",
      "centerLat": 52.56,
      "centerLng": -117.84,
      "radiusKm": 380
    },
    "50518.0": {
      "id": "50518.0",
      "name": "North Central Rockies forests",
      "biome": "5.0",
      "realm": "NA",
      "centerLat": 49.8,
      "centerLng": -117.03,
      "radiusKm": 766
    },
    "81005.0": {
      "id": "81005.0",
      "name": "Hindu Kush alpine meadow",
      "biome": "10.0",
      "realm": "PA",
      "centerLat": 35.86,
      "centerLng": 70.3,
      "radiusKm": 153
    },
    "80517.0": {
      "id": "80517.0",
      "name": "Qilian Mountains conifer forests",
      "biome": "5.0",
      "realm": "PA",
      "centerLat": 34.59,
      "centerLng": 103.14,
      "radiusKm": 162
    },
    "51310.0": {
      "id": "51310.0",
      "name": "Sonoran desert",
      "biome": "13.0",
      "realm": "NA",
      "centerLat": 28.7,
      "centerLng": -112.57,
      "radiusKm": 50
    },
    "11401.0": {
      "id": "11401.0",
      "name": "New Guinea mangroves",
      "biome": "14.0",
      "realm": "AA",
      "centerLat": -10.43,
      "centerLng": 150.02,
      "radiusKm": 50
    },
    "10102.0": {
      "id": "10102.0",
      "name": "Banda Sea Islands moist deciduous forests",
      "biome": "1.0",
      "realm": "AA",
      "centerLat": -8.24,
      "centerLng": 128.15,
      "radiusKm": 50
    },
    "30125.0": {
      "id": "30125.0",
      "name": "Northern Zanzibar-Inhambane coastal forest mosaic",
      "biome": "1.0",
      "realm": "AT",
      "centerLat": -8.0,
      "centerLng": 39.78,
      "radiusKm": 50
    },
    "30708.0": {
      "id": "30708.0",
      "name": "Itigi-Sumbu thicket",
      "biome": "7.0",
      "realm": "AT",
      "centerLat": -5.55,
      "centerLng": 34.49,
      "radiusKm": 56
    },
    "31403.0": {
      "id": "31403.0",
      "name": "Guinean mangroves",
      "biome": "14.0",
      "realm": "AT",
      "centerLat": 5.02,
      "centerLng": -8.93,
      "radiusKm": 50
    },
    "30103.0": {
      "id": "30103.0",
      "name": "Cameroonian Highlands forests",
      "biome": "1.0",
      "realm": "AT",
      "centerLat": 5.64,
      "centerLng": 10.02,
      "radiusKm": 155
    },
    "40102.0": {
      "id": "40102.0",
      "name": "Borneo lowland rain forests",
      "biome": "1.0",
      "realm": "IM",
      "centerLat": -5.56,
      "centerLng": 114.43,
      "radiusKm": 50
    },
    "40156.0": {
      "id": "40156.0",
      "name": "Sulu Archipelago rain forests",
      "biome": "1.0",
      "realm": "IM",
      "centerLat": 4.78,
      "centerLng": 119.48,
      "radiusKm": 50
    },
    "31401.0": {
      "id": "31401.0",
      "name": "Central African mangroves",
      "biome": "14.0",
      "realm": "AT",
      "centerLat": -6.04,
      "centerLng": 12.63,
      "radiusKm": 50
    },
    "41405.0": {
      "id": "41405.0",
      "name": "Sunda Shelf mangroves",
      "biome": "14.0",
      "realm": "IM",
      "centerLat": -4.01,
      "centerLng": 116.08,
      "radiusKm": 50
    },
    "81203.0": {
      "id": "81203.0",
      "name": "Canary Islands dry woodlands and forests",
      "biome": "12.0",
      "realm": "PA",
      "centerLat": 27.75,
      "centerLng": -15.68,
      "radiusKm": 50
    },
    "40160.0": {
      "id": "40160.0",
      "name": "Sumatran peat swamp forests",
      "biome": "1.0",
      "realm": "IM",
      "centerLat": -0.29,
      "centerLng": 103.38,
      "radiusKm": 50
    },
    "30108.0": {
      "id": "30108.0",
      "name": "East African montane forests",
      "biome": "1.0",
      "realm": "AT",
      "centerLat": -4.08,
      "centerLng": 35.47,
      "radiusKm": 50
    },
    "40146.0": {
      "id": "40146.0",
      "name": "Peninsular Malaysian rain forests",
      "biome": "1.0",
      "realm": "IM",
      "centerLat": -0.38,
      "centerLng": 104.21,
      "radiusKm": 50
    },
    "30127.0": {
      "id": "30127.0",
      "name": "Sao Tome, Principe and Annobon moist lowland forests",
      "biome": "1.0",
      "realm": "AT",
      "centerLat": 1.62,
      "centerLng": 7.4,
      "radiusKm": 50
    },
    "10106.0": {
      "id": "10106.0",
      "name": "Halmahera rain forests",
      "biome": "1.0",
      "realm": "AA",
      "centerLat": -1.85,
      "centerLng": 127.6,
      "radiusKm": 50
    },
    "40161.0": {
      "id": "40161.0",
      "name": "Sundaland heath forests",
      "biome": "1.0",
      "realm": "IM",
      "centerLat": -3.66,
      "centerLng": 115.37,
      "radiusKm": 85
    },
    "10115.0": {
      "id": "10115.0",
      "name": "Northern New Guinea lowland rain and freshwater swamp forests",
      "biome": "1.0",
      "realm": "AA",
      "centerLat": -3.61,
      "centerLng": 144.81,
      "radiusKm": 50
    },
    "40157.0": {
      "id": "40157.0",
      "name": "Sumatran freshwater swamp forests",
      "biome": "1.0",
      "realm": "IM",
      "centerLat": -3.61,
      "centerLng": 105.14,
      "radiusKm": 50
    },
    "40104.0": {
      "id": "40104.0",
      "name": "Borneo peat swamp forests",
      "biome": "1.0",
      "realm": "IM",
      "centerLat": -3.09,
      "centerLng": 112.02,
      "radiusKm": 54
    },
    "10108.0": {
      "id": "10108.0",
      "name": "Yapen rain forests",
      "biome": "1.0",
      "realm": "AA",
      "centerLat": -1.93,
      "centerLng": 136.35,
      "radiusKm": 50
    },
    "30704.0": {
      "id": "30704.0",
      "name": "Central Zambezian Miombo woodlands",
      "biome": "7.0",
      "realm": "AT",
      "centerLat": -2.43,
      "centerLng": 32.01,
      "radiusKm": 50
    },
    "10123.0": {
      "id": "10123.0",
      "name": "Sulawesi lowland rain forests",
      "biome": "1.0",
      "realm": "AA",
      "centerLat": -7.28,
      "centerLng": 121.76,
      "radiusKm": 50
    },
    "10111.0": {
      "id": "10111.0",
      "name": "New Britain-New Ireland lowland rain forests",
      "biome": "1.0",
      "realm": "AA",
      "centerLat": -5.65,
      "centerLng": 147.92,
      "radiusKm": 50
    },
    "80804.0": {
      "id": "80804.0",
      "name": "Daurian forest steppe",
      "biome": "8.0",
      "realm": "PA",
      "centerLat": 50.18,
      "centerLng": 112.25,
      "radiusKm": 928
    },
    "81009.0": {
      "id": "81009.0",
      "name": "Kuh Rud and Eastern Iran montane woodlands",
      "biome": "10.0",
      "realm": "PA",
      "centerLat": 26.47,
      "centerLng": 60.14,
      "radiusKm": 50
    },
    "51203.0": {
      "id": "51203.0",
      "name": "California montane chaparral and woodlands",
      "biome": "12.0",
      "realm": "NA",
      "centerLat": 36.08,
      "centerLng": -121.36,
      "radiusKm": 90
    },
    "81220.0": {
      "id": "81220.0",
      "name": "Southern Anatolian montane conifer and deciduous forests",
      "biome": "12.0",
      "realm": "PA",
      "centerLat": 33.2,
      "centerLng": 35.52,
      "radiusKm": 50
    },
    "81205.0": {
      "id": "81205.0",
      "name": "Crete Mediterranean forests",
      "biome": "12.0",
      "realm": "PA",
      "centerLat": 35.32,
      "centerLng": 26.17,
      "radiusKm": 50
    },
    "80506.0": {
      "id": "80506.0",
      "name": "East Afghan montane conifer forests",
      "biome": "5.0",
      "realm": "PA",
      "centerLat": 30.1,
      "centerLng": 66.85,
      "radiusKm": 50
    },
    "81017.0": {
      "id": "81017.0",
      "name": "Southeast Tibet shrublands and meadows",
      "biome": "10.0",
      "realm": "PA",
      "centerLat": 30.75,
      "centerLng": 94.12,
      "radiusKm": 50
    },
    "50503.0": {
      "id": "50503.0",
      "name": "Arizona Mountains forests",
      "biome": "5.0",
      "realm": "NA",
      "centerLat": 32.83,
      "centerLng": -105.2,
      "radiusKm": 150
    },